,code_commune_INSEE,nom_commune_postal,latitude,longitude,code_departement,pop,couverture-im-01,couverture-im-02,couverture-im-03,couverture-im-04,couverture-im-05,couverture-im-06,couverture-im-07,couverture-im-08,couverture-im-09,couverture-im-10,couverture-im-11,couverture-im-12
0,01001,L ABERGEMENT CLEMENCIAT,46.1534255214,4.92611354223,1,784.0,0,0,0,0,0,1,1,1,1,1,1,1
1,01002,L ABERGEMENT DE VAREY,46.0091878776,5.42801696363,1,221.0,1,1,1,1,1,0,1,1,1,1,1,1
2,01004,AMBERIEU EN BUGEY,45.9608475114,5.3729257777,1,13835.0,1,1,1,1,1,1,1,1,1,1,1,1
3,01005,AMBERIEUX EN DOMBES,45.9961799872,4.91227250796,1,1616.0,0,0,0,1,1,1,1,1,1,1,1,1
5,01007,AMBRONAY,46.0055913782,5.35760660735,1,2362.0,1,1,1,1,1,0,1,1,1,1,1,1
6,01008,AMBUTRIX,45.9367134524,5.3328092349,1,729.0,1,1,1,1,1,1,1,1,1,1,1,1
7,01009,ANDERT ET CONDON,45.7873565333,5.65788307924,1,340.0,0,0,1,0,0,1,1,1,1,1,1,1
8,01010,ANGLEFORT,45.9093715116,5.79516005674,1,994.0,0,0,0,0,0,0,0,0,0,0,0,0
9,01011,APREMONT,46.2054981558,5.65781475272,1,363.0,1,1,1,1,0,0,1,1,1,1,1,1
10,01012,ARANC,46.0015344029,5.51130637511,1,302.0,0,0,0,0,0,0,0,0,0,0,0,0
12,01014,ARBENT,46.2834936005,5.69061651221,1,3476.0,1,0,1,1,1,1,-1,-1,-1,-1,-1,-1
13,01015,ARBOYS EN BUGEY,45.7237621545,5.65263086429,1,480.0,0,1,0,1,1,1,1,1,1,1,1,1
14,01015,ARBOYS EN BUGEY,45.7237621545,5.65263086429,1,480.0,0,1,0,1,1,1,1,1,1,1,1,1
15,01016,ARBIGNY,46.4776762988,4.9599416863,1,399.0,0,0,0,0,0,0,-1,-1,-1,-1,-1,-1
16,01017,ARGIS,45.9337182132,5.48251100314,1,421.0,0,0,0,1,1,1,1,1,1,1,1,1
18,01021,ARS SUR FORMANS,45.9934611,4.82199649494,1,1367.0,1,1,1,1,1,1,1,1,1,1,1,1
19,01022,ARTEMARE,45.8695891748,5.69065283943,1,1126.0,0,0,0,0,0,1,1,1,1,1,1,1
21,01024,ATTIGNAT,46.2861802203,5.1795233845,1,2936.0,1,1,1,1,1,1,1,1,1,1,1,1
22,01025,BAGE LA VILLE,46.3233203302,4.9528678933,1,3040.0,1,1,1,1,1,1,1,1,1,1,1,1
23,01026,BAGE LE CHATEL,46.3077069231,4.92862084189,1,796.0,1,1,1,1,1,1,1,1,1,1,1,1
24,01027,BALAN,45.8311226453,5.10780019249,1,2348.0,1,1,1,1,1,1,1,-1,-1,1,1,1
25,01028,BANEINS,46.1141214445,4.90146475101,1,572.0,0,0,1,0,1,1,1,1,1,1,1,1
26,01029,BEAUPONT,46.4288360203,5.26003405676,1,624.0,0,0,0,0,0,0,1,0,1,1,1,-1
27,01030,BEAUREGARD,46.0008580204,4.75600664694,1,870.0,1,1,1,1,1,1,-1,1,-1,1,1,1
28,01031,BELLIGNAT,46.2373497134,5.6360052884,1,3537.0,1,1,1,1,1,1,1,1,1,1,1,1
29,01032,BELIGNEUX,45.8591464826,5.13989505865,1,2905.0,0,1,0,0,0,0,1,1,1,1,1,1
30,01032,BELIGNEUX,45.8591464826,5.13989505865,1,2905.0,0,1,0,0,0,0,1,1,1,1,1,1
31,01032,BELIGNEUX,45.8591464826,5.13989505865,1,2905.0,0,1,0,0,0,0,1,1,1,1,1,1
32,01032,BELIGNEUX,45.8591464826,5.13989505865,1,2905.0,0,1,0,0,0,0,1,1,1,1,1,1
33,01033,BELLEGARDE SUR VALSERINE,46.1067901755,5.83202736464,1,11790.0,1,1,0,1,1,1,1,1,-1,1,-1,1
34,01034,BELLEY,45.7494697806,5.68412365526,1,8755.0,1,1,1,1,1,1,1,1,1,1,1,1
35,01035,BELLEYDOUX,46.2530316409,5.78471723698,1,321.0,0,1,0,0,0,0,-1,1,1,1,1,-1
36,01036,BELMONT LUTHEZIEU,45.8847475883,5.65115788055,1,514.0,0,0,0,0,0,0,0,0,1,1,1,1
37,01036,BELMONT LUTHEZIEU,45.8847475883,5.65115788055,1,514.0,0,0,0,0,0,0,0,0,1,1,1,1
38,01037,BENONCES,45.8374974718,5.48285330863,1,275.0,0,1,1,0,1,0,1,0,1,1,1,1
39,01038,BENY,46.3188629218,5.28253433405,1,724.0,0,0,0,0,1,1,1,1,1,1,1,1
40,01039,BEON,45.8568920052,5.75220315052,1,373.0,0,0,0,0,0,0,1,1,1,1,1,1
41,01040,BEREZIAT,46.3674371012,5.04021655965,1,445.0,0,0,0,0,0,0,0,0,0,0,0,0
42,01041,BETTANT,45.9368718303,5.36667617009,1,724.0,1,1,1,1,1,1,1,1,1,1,1,1
43,01042,BEY,46.2191748844,4.84642690241,1,245.0,0,1,1,1,1,0,0,1,0,0,0,1
44,01043,BEYNOST,45.8390325448,4.99738002182,1,4475.0,1,1,1,0,1,1,1,1,1,1,1,1
45,01044,BILLIAT,46.0791346715,5.76591818163,1,484.0,0,0,0,0,0,0,0,0,1,1,1,1
46,01045,BIRIEUX,45.9533995502,5.03666479984,1,236.0,0,1,0,0,0,0,1,0,1,1,1,1
47,01046,BIZIAT,46.2266794269,4.94084673168,1,797.0,0,0,0,0,1,0,1,1,1,1,1,1
48,01047,BLYES,45.8469686113,5.25166055884,1,886.0,0,1,0,0,1,1,1,1,1,1,1,1
49,01049,LA BOISSE,45.8446213549,5.02783224111,1,2928.0,1,1,1,0,1,0,1,1,1,1,1,1
50,01050,BOISSEY,46.3727973545,4.9989764059,1,288.0,0,0,0,0,0,0,0,0,0,0,0,0
51,01050,BOISSEY,46.3727973545,4.9989764059,1,288.0,0,0,0,0,0,0,0,0,0,0,0,0
53,01052,BOULIGNEUX,46.0232774841,4.99252709276,1,309.0,1,0,0,0,0,0,1,0,0,0,0,0
54,01053,BOURG EN BRESSE,46.2051520382,5.24602125501,1,40088.0,1,1,1,1,1,1,1,1,1,1,1,1
55,01053,BOURG EN BRESSE,46.2051520382,5.24602125501,1,40088.0,1,1,1,1,1,1,1,1,1,1,1,1
56,01054,BOURG ST CHRISTOPHE,45.8861934456,5.14349196896,1,1173.0,0,1,0,0,0,1,1,1,1,1,1,1
57,01054,BOURG ST CHRISTOPHE,45.8861934456,5.14349196896,1,1173.0,0,1,0,0,0,1,1,1,1,1,1,1
58,01056,BOYEUX ST JEROME,46.0363677631,5.46322744717,1,321.0,1,1,1,0,1,0,1,1,1,1,1,1
59,01057,BOZ,46.4051688134,4.9135797178,1,496.0,0,1,0,1,1,1,-1,1,-1,1,1,1
60,01058,BREGNIER CORDON,45.6416854652,5.61653371,1,832.0,1,1,0,0,0,1,-1,-1,-1,-1,-1,-1
62,01060,BRENOD,46.0759940484,5.61418361314,1,544.0,0,0,0,0,0,0,0,0,0,0,0,0
63,01061,BRENS,45.7135069062,5.68998154517,1,1158.0,0,1,0,1,1,1,1,1,1,1,1,1
64,01062,BRESSOLLES,45.869423064,5.1009428902,1,709.0,1,1,1,0,1,1,1,1,1,1,1,1
65,01062,BRESSOLLES,45.869423064,5.1009428902,1,709.0,1,1,1,0,1,1,1,1,1,1,1,1
66,01063,BRION,46.1686327301,5.54656422194,1,517.0,1,1,1,1,1,1,1,1,1,1,1,1
67,01064,BRIORD,45.7708330939,5.48537461884,1,893.0,0,0,0,1,1,0,-1,-1,-1,-1,1,-1
68,01065,BUELLAS,46.2104135162,5.14487465017,1,1669.0,1,1,1,1,1,1,1,1,1,1,1,1
69,01065,BUELLAS,46.2104135162,5.14487465017,1,1669.0,1,1,1,1,1,1,1,1,1,1,1,1
71,01067,CEIGNES,46.1256533435,5.49457379202,1,265.0,0,0,1,0,0,0,0,0,0,0,1,1
72,01068,CERDON,46.0720202633,5.47577586118,1,741.0,0,0,1,0,0,0,1,1,1,1,1,1
73,01069,CERTINES,46.1337950959,5.26239539372,1,1445.0,0,1,1,1,1,1,1,1,1,1,1,1
74,01071,CESSY,46.315689376,6.0779844362,1,3992.0,1,1,1,1,1,1,1,1,1,1,1,1
75,01072,CEYZERIAT,46.1832170988,5.32007207542,1,2738.0,1,1,1,1,1,1,1,1,1,1,1,1
76,01073,CEYZERIEU,45.8335530148,5.71933090966,1,929.0,0,0,0,0,0,0,1,1,1,1,1,1
77,01074,CHALAMONT,46.0076491739,5.16936568,1,2322.0,1,1,1,1,1,1,1,1,1,1,1,1
78,01075,CHALEINS,46.0340545373,4.79853838574,1,1165.0,1,1,1,1,1,1,-1,-1,-1,-1,-1,1
81,01078,CHALLEX,46.1768358327,5.97115092939,1,1225.0,0,0,1,1,1,1,-1,-1,1,1,-1,-1
82,01079,CHAMPAGNE EN VALROMEY,45.9316447397,5.69321890072,1,765.0,0,0,0,0,0,0,0,0,1,1,1,1
83,01079,CHAMPAGNE EN VALROMEY,45.9316447397,5.69321890072,1,765.0,0,0,0,0,0,0,0,0,1,1,1,1
84,01079,CHAMPAGNE EN VALROMEY,45.9316447397,5.69321890072,1,765.0,0,0,0,0,0,0,0,0,1,1,1,1
85,01080,CHAMPDOR CORCELLES,46.0198844188,5.60008759722,1,464.0,0,0,0,0,0,0,0,0,0,0,0,0
86,01080,CHAMPDOR CORCELLES,46.0198844188,5.60008759722,1,464.0,0,0,0,0,0,0,0,0,0,0,0,0
87,01081,CHAMPFROMIER,46.220365768,5.82233573131,1,677.0,0,0,0,0,0,0,0,0,0,0,0,0
88,01082,CHANAY,46.005695299,5.76893393185,1,617.0,0,0,0,0,0,0,0,0,0,1,1,1
89,01083,CHANEINS,46.0934984191,4.85473364691,1,820.0,0,0,0,0,0,0,1,1,1,1,1,1
90,01084,CHANOZ CHATENAY,46.1861812234,5.02807719246,1,706.0,0,0,1,1,1,1,1,1,1,1,1,1
91,01085,LA CHAPELLE DU CHATELARD,46.0744536905,5.02162055898,1,341.0,0,0,0,0,0,0,1,1,1,1,1,1
92,01087,CHARIX,46.1856344066,5.6811896084,1,294.0,0,1,0,0,0,0,1,0,1,1,1,1
93,01088,CHARNOZ SUR AIN,45.8736786869,5.2211032563,1,911.0,1,1,1,1,1,0,1,1,1,1,1,1
94,01089,CHATEAU GAILLARD,45.9730390239,5.30754273532,1,1818.0,1,1,1,1,1,1,1,1,1,1,1,1
95,01090,CHATENAY,46.0259402155,5.2048590395,1,352.0,1,1,1,1,1,0,1,1,1,1,1,1
96,01091,CHATILLON EN MICHAILLE,46.1293337743,5.770176021,1,3120.0,0,0,0,0,0,0,0,0,1,1,1,1
97,01091,CHATILLON EN MICHAILLE,46.1293337743,5.770176021,1,3120.0,0,0,0,0,0,0,0,0,1,1,1,1
98,01091,CHATILLON EN MICHAILLE,46.1293337743,5.770176021,1,3120.0,0,0,0,0,0,0,0,0,1,1,1,1
99,01092,CHATILLON LA PALUD,45.9748017433,5.2416027725,1,1562.0,1,1,1,1,1,1,1,1,1,1,1,1
100,01093,CHATILLON SUR CHALARONNE,46.1232390685,4.95810003714,1,4922.0,1,1,1,1,1,1,1,1,1,1,1,1
101,01094,CHAVANNES SUR REYSSOUZE,46.4379785193,5.00693749662,1,680.0,0,0,0,0,0,0,1,0,0,0,0,0
102,01095,CHAVANNES SUR SURAN,46.2750157946,5.41649423093,1,644.0,1,1,1,1,1,1,1,1,1,1,1,1
103,01096,CHAVEYRIAT,46.1991513767,5.0564069258,1,927.0,0,0,1,1,1,1,1,1,1,1,1,1
105,01098,CHAZEY BONS,45.7925770617,5.68477063188,1,744.0,1,0,1,0,0,1,1,1,1,1,1,1
106,01099,CHAZEY SUR AIN,45.8929448968,5.25528498524,1,1464.0,0,1,1,0,1,0,1,1,1,1,1,1
109,01102,CHEVROUX,46.38249255,4.96288275972,1,933.0,0,0,0,0,0,0,1,1,1,1,1,1
110,01103,CHEVRY,46.283152935,6.04707941462,1,1235.0,1,1,1,1,1,1,1,1,1,1,1,1
111,01104,CHEZERY FORENS,46.222573373,5.87248105275,1,434.0,0,0,0,0,0,0,0,0,0,0,0,0
112,01104,CHEZERY FORENS,46.222573373,5.87248105275,1,434.0,0,0,0,0,0,0,0,0,0,0,0,0
113,01105,CIVRIEUX,45.922467454,4.88633786877,1,1362.0,1,1,0,0,0,1,1,1,1,1,1,1
116,01108,COLIGNY,46.3866637865,5.3308227014,1,1154.0,0,1,0,1,0,1,-1,-1,-1,-1,1,1
117,01109,COLLONGES,46.1419227898,5.90040256654,1,1897.0,0,0,0,0,0,0,0,1,-1,-1,-1,-1
120,01112,CONDAMINE,46.105831161,5.55568206762,1,404.0,0,0,1,1,1,1,1,1,1,1,1,1
121,01113,CONDEISSIAT,46.1538469834,5.08437171701,1,756.0,0,0,0,0,0,0,1,0,1,1,1,1
122,01114,CONFORT,46.1543700156,5.83319395258,1,525.0,0,0,0,0,0,0,0,0,0,1,0,1
123,01115,CONFRANCON,46.270304175,5.05775217893,1,1157.0,0,0,1,0,0,0,1,0,1,1,1,0
124,01116,CONTREVOZ,45.8009403071,5.62087768159,1,539.0,0,0,0,0,0,0,0,0,1,1,1,1
126,01118,CORBONOD,45.9659473187,5.78961970355,1,1176.0,0,0,0,0,0,0,0,1,0,1,1,0
128,01122,CORMARANCHE EN BUGEY,45.9442772826,5.60860828487,1,859.0,0,0,0,0,0,0,0,0,0,0,0,0
129,01123,CORMORANCHE SUR SAONE,46.2403530179,4.8276569593,1,1058.0,1,1,0,1,1,1,1,1,1,1,1,1
130,01124,CORMOZ,46.4336632942,5.22181275755,1,625.0,0,0,0,0,0,0,0,0,1,1,1,1
131,01125,CORVEISSIAT,46.2505107235,5.47152467919,1,602.0,1,1,1,1,1,1,-1,-1,-1,1,1,1
132,01127,COURMANGOUX,46.3267864521,5.35558241812,1,507.0,0,0,0,0,0,0,0,0,1,1,1,1
133,01128,COURTES,46.4570082032,5.11128546723,1,266.0,0,0,0,0,1,1,1,1,1,1,1,1
134,01129,CRANS,45.9663793103,5.19490390871,1,269.0,1,1,1,1,1,1,1,1,1,1,1,1
135,01130,CRAS SUR REYSSOUZE,46.3130831891,5.17796707174,1,1256.0,1,0,1,1,1,1,1,1,1,1,1,1
136,01133,CRESSIN ROCHEFORT,45.7826434885,5.76546256637,1,374.0,0,0,0,0,0,0,-1,0,1,0,1,1
137,01134,CROTTET,46.283072336,4.87747971182,1,1722.0,1,1,1,1,1,1,1,1,1,1,1,1
138,01134,CROTTET,46.283072336,4.87747971182,1,1722.0,1,1,1,1,1,1,1,1,1,1,1,1
139,01135,CROZET,46.2915659686,5.99510417092,1,1862.0,0,0,0,1,0,0,0,0,1,0,0,0
140,01136,CRUZILLES LES MEPILLAT,46.2220588715,4.8752193513,1,818.0,0,1,1,1,1,0,1,0,0,0,0,0
141,01138,CULOZ,45.8559966843,5.78398308932,1,2909.0,0,0,0,0,0,0,1,1,1,1,1,-1
142,01139,CURCIAT DONGALON,46.4885456881,5.16344336837,1,456.0,0,0,0,0,0,0,-1,-1,-1,-1,-1,-1
143,01140,CURTAFOND,46.273150382,5.1020896267,1,702.0,0,0,1,0,1,1,1,1,1,1,1,1
144,01141,CUZIEU,45.8200002803,5.6765554896,1,407.0,0,0,0,0,0,1,1,1,1,1,1,1
145,01142,DAGNEUX,45.8531616918,5.07289166803,1,4099.0,1,1,1,1,1,1,1,1,1,1,1,1
146,01143,DIVONNE LES BAINS,46.3756333495,6.1158647611,1,8160.0,1,1,1,0,0,1,0,0,0,1,1,0
147,01144,DOMMARTIN,46.33627762,4.99863894,1,841.0,0,0,0,0,0,0,0,0,0,0,0,0
148,01145,DOMPIERRE SUR VEYLE,46.0667883703,5.21665199666,1,1226.0,1,1,1,1,1,1,1,1,1,1,1,1
149,01146,DOMPIERRE SUR CHALARONNE,46.1415406621,4.90141714714,1,389.0,0,0,0,0,0,1,1,1,1,1,1,1
150,01147,DOMSURE,46.4244066427,5.29313479651,1,473.0,0,1,0,0,0,1,-1,-1,-1,-1,-1,-1
151,01148,DORTAN,46.3133221173,5.64146584117,1,1996.0,0,0,1,1,1,1,-1,-1,-1,-1,-1,-1
152,01149,DOUVRES,45.984297392,5.37106901673,1,962.0,1,1,1,1,1,1,1,1,1,1,1,1
153,01150,DROM,46.2196603059,5.36799994918,1,209.0,0,1,0,0,0,0,1,0,1,1,1,1
154,01151,DRUILLAT,46.067579544,5.29361666429,1,1134.0,1,1,1,0,1,0,1,1,1,1,1,1
155,01152,ECHALLON,46.2271364137,5.73330448395,1,772.0,0,1,0,0,0,0,0,0,1,0,1,1
156,01153,ECHENEVEX,46.3160845207,6.01926187996,1,1631.0,1,1,1,1,0,1,1,0,1,0,0,0
157,01154,ETREZ,46.3380891758,5.19286414645,1,803.0,0,0,1,0,0,0,1,1,1,1,1,1
159,01156,FARAMANS,45.9104942091,5.1249258559,1,681.0,0,0,0,0,0,0,1,1,1,1,1,1
160,01157,FAREINS,46.020997974,4.7620080898,1,2137.0,1,1,1,1,1,1,-1,1,-1,1,1,-1
161,01158,FARGES,46.166230455,5.90019477201,1,854.0,0,0,1,1,0,0,0,0,1,1,1,1
162,01159,FEILLENS,46.3365833672,4.88507050971,1,3115.0,1,1,1,1,1,1,-1,1,1,1,1,1
163,01160,FERNEY VOLTAIRE,46.2519789243,6.10826403805,1,8025.0,1,1,0,1,1,1,-1,-1,-1,-1,-1,-1
165,01163,FOISSIAT,46.3784759782,5.18483641417,1,1912.0,0,0,0,0,0,0,1,1,1,1,1,1
166,01165,FRANCHELEINS,46.0735946256,4.81293575559,1,1323.0,1,1,1,0,1,0,-1,0,1,1,1,1
167,01165,FRANCHELEINS,46.0735946256,4.81293575559,1,1323.0,1,1,1,0,1,0,-1,0,1,1,1,1
168,01165,FRANCHELEINS,46.0735946256,4.81293575559,1,1323.0,1,1,1,0,1,0,-1,0,1,1,1,1
169,01166,FRANS,45.9939065077,4.78033196905,1,1984.0,1,1,1,1,1,1,-1,1,1,1,1,1
170,01167,GARNERANS,46.2136224825,4.82843188743,1,656.0,1,1,0,1,1,1,1,1,0,0,0,-1
171,01169,GENOUILLEUX,46.1201611728,4.79288195016,1,609.0,1,1,0,0,0,1,-1,1,1,-1,-1,-1
172,01170,BEARD GEOVREISSIAT,46.1896733539,5.55139781353,1,925.0,1,1,1,1,1,1,1,1,1,1,1,1
173,01171,GEOVREISSET,46.2508621615,5.61271973915,1,903.0,1,1,1,1,1,1,1,1,1,1,1,1
175,01173,GEX,46.3471891747,6.04650555568,1,10372.0,1,1,1,0,0,1,1,1,1,1,1,1
177,01175,GORREVOD,46.414943437,4.95120595427,1,799.0,0,1,1,1,1,1,1,1,1,1,1,1
179,01179,GRIEGES,46.2633634407,4.84621318847,1,1899.0,1,1,1,1,1,1,1,1,1,1,1,1
180,01180,GRILLY,46.3318810665,6.11366767978,1,762.0,1,1,1,1,1,1,1,-1,1,1,1,1
181,01181,GROISSIAT,46.2260039429,5.61095413441,1,1143.0,1,1,1,1,1,1,1,1,1,1,1,1
182,01183,GUEREINS,46.106624674,4.78159420118,1,1308.0,1,1,0,1,0,1,-1,1,-1,1,1,-1
183,01184,HAUTECOURT ROMANECHE,46.1611241927,5.42944457639,1,773.0,0,0,0,0,0,0,0,0,1,1,1,1
184,01184,HAUTECOURT ROMANECHE,46.1611241927,5.42944457639,1,773.0,0,0,0,0,0,0,0,0,1,1,1,1
185,01185,HAUTEVILLE LOMPNES,45.9696520061,5.57627261783,1,4044.0,0,0,0,0,0,0,0,0,0,0,0,0
187,01187,HAUT VALROMEY,46.0317412192,5.70267027388,1,306.0,0,0,0,0,0,0,0,0,0,0,0,0
188,01187,HAUT VALROMEY,46.0317412192,5.70267027388,1,306.0,0,0,0,0,0,0,0,0,0,0,0,0
189,01187,HAUT VALROMEY,46.0317412192,5.70267027388,1,306.0,0,0,0,0,0,0,0,0,0,0,0,0
190,01187,HAUT VALROMEY,46.0317412192,5.70267027388,1,306.0,0,0,0,0,0,0,0,0,0,0,0,0
191,01188,ILLIAT,46.1866986838,4.88840344003,1,570.0,0,0,0,0,0,0,1,1,1,1,1,1
192,01189,INJOUX GENISSIAT,46.0497734524,5.75991363273,1,1055.0,0,0,0,0,0,0,0,0,1,1,1,1
193,01189,INJOUX GENISSIAT,46.0497734524,5.75991363273,1,1055.0,0,0,0,0,0,0,0,0,1,1,1,1
196,01192,IZERNORE,46.2179780137,5.56258251719,1,2278.0,1,1,1,1,1,1,1,1,1,1,1,1
197,01193,IZIEU,45.6557496407,5.63909140794,1,201.0,0,0,0,0,0,0,0,0,0,1,1,1
198,01194,JASSANS RIOTTIER,45.9777239103,4.75984637871,1,5976.0,1,1,1,1,1,1,-1,1,1,1,1,1
199,01195,JASSERON,46.2150037064,5.31215372338,1,1552.0,1,1,1,0,1,0,1,1,1,1,1,1
200,01196,JAYAT,46.3660828991,5.11429701617,1,1049.0,0,0,1,0,0,1,1,1,1,1,1,1
201,01197,JOURNANS,46.1464982407,5.33452833151,1,324.0,1,1,1,1,1,1,1,1,1,1,1,1
202,01198,JOYEUX,45.9499899849,5.10261326872,1,223.0,0,0,0,0,0,0,0,0,1,1,1,1
203,01199,JUJURIEUX,46.0497041467,5.41094771899,1,2097.0,1,1,1,1,1,1,1,1,1,1,1,1
204,01200,LABALME,46.0932491295,5.49438685213,1,204.0,0,0,1,0,0,0,0,0,1,1,1,1
205,01202,LAGNIEU,45.8917015798,5.32917518895,1,6756.0,1,1,1,1,1,1,1,1,1,1,1,1
206,01203,LAIZ,46.2469919709,4.89933490972,1,1130.0,0,1,1,1,1,1,1,1,1,1,1,1
207,01204,LE POIZAT LALLEYRIAT,46.1479592076,5.71829194244,1,239.0,0,0,0,0,0,0,0,0,1,1,1,1
208,01204,LE POIZAT LALLEYRIAT,46.1479592076,5.71829194244,1,239.0,0,0,0,0,0,0,0,0,1,1,1,1
209,01205,LANCRANS,46.1323202721,5.84050985141,1,1052.0,1,0,1,0,0,0,0,1,1,1,1,1
210,01206,LANTENAY,46.0544405897,5.54127421165,1,257.0,0,0,0,0,0,0,0,0,0,0,0,0
211,01207,LAPEYROUSE,45.9859131165,4.98196682865,1,292.0,0,1,0,0,0,0,1,0,0,1,0,0
213,01209,LEAZ,46.1086518044,5.87649017888,1,569.0,1,1,0,0,0,0,-1,-1,-1,-1,-1,-1
214,01210,LELEX,46.2855010936,5.92927713771,1,225.0,0,0,0,0,0,0,-1,-1,-1,-1,-1,-1
215,01211,LENT,46.1160216305,5.20200684747,1,1328.0,1,1,1,1,1,1,1,1,1,1,1,1
216,01212,LESCHEROUX,46.4114892731,5.15107164478,1,683.0,0,0,0,0,0,0,1,1,1,1,1,1
217,01213,LEYMENT,45.9269989549,5.2947657235,1,1273.0,0,1,1,1,1,1,1,1,1,1,1,1
220,01216,LHUIS,45.7444141403,5.53602066955,1,854.0,0,0,0,0,0,0,0,1,0,-1,1,-1
224,01224,LOYETTES,45.7921564114,5.21770971647,1,2645.0,1,1,1,1,1,1,-1,1,-1,1,1,1
225,01225,LURCY,46.061730034,4.78075207026,1,393.0,1,1,0,1,1,1,-1,-1,-1,-1,-1,-1
226,01227,MAGNIEU,45.7754050255,5.71540945601,1,419.0,1,1,1,0,1,1,1,1,1,1,1,1
227,01228,MAILLAT,46.1201642836,5.52854394238,1,668.0,0,0,1,1,1,1,1,1,1,1,1,1
228,01229,MALAFRETAZ,46.3295545661,5.14386299599,1,952.0,0,0,1,1,1,1,1,1,1,1,1,1
229,01230,MANTENAY MONTLIN,46.4302754511,5.10675899732,1,288.0,0,0,0,0,0,1,1,1,1,1,1,1
230,01231,MANZIAT,46.3643830585,4.90242777155,1,1924.0,0,0,1,1,1,1,-1,1,1,-1,-1,-1
231,01232,MARBOZ,46.3434312497,5.24374534963,1,2182.0,0,0,0,0,0,1,1,1,1,1,1,1
234,01235,MARLIEUX,46.0549073186,5.0741150816,1,887.0,0,0,0,0,0,1,1,1,1,1,1,1
235,01236,MARSONNAS,46.3409117711,5.06434294764,1,1005.0,0,0,0,0,0,1,1,1,1,1,1,1
236,01237,MARTIGNAT,46.2030768095,5.61384033805,1,1604.0,1,1,1,1,1,1,1,1,1,1,1,1
237,01238,MASSIEUX,45.9094016817,4.82779660051,1,2428.0,1,1,0,1,1,1,-1,-1,-1,-1,-1,-1
238,01239,MASSIGNIEU DE RIVES,45.7571503942,5.7620535823,1,608.0,0,1,0,0,0,0,-1,1,1,1,1,-1
239,01240,MATAFELON GRANGES,46.2565319445,5.53958933702,1,652.0,1,1,1,1,1,1,-1,-1,-1,-1,-1,1
240,01240,MATAFELON GRANGES,46.2565319445,5.53958933702,1,652.0,1,1,1,1,1,1,-1,-1,-1,-1,-1,1
241,01241,MEILLONNAS,46.244997627,5.33594738489,1,1298.0,1,1,1,1,1,0,1,1,1,1,1,1
243,01243,MESSIMY SUR SAONE,46.0472670758,4.75935643933,1,1209.0,1,1,0,1,1,1,-1,-1,-1,1,-1,-1
244,01244,MEXIMIEUX,45.9060530318,5.20404833653,1,7268.0,1,1,1,1,1,1,1,1,1,1,1,1
245,01245,BOHAS MEYRIAT RIGNAT,46.1427060662,5.3780109646,1,811.0,1,1,1,0,0,0,1,1,1,1,1,1
246,01245,BOHAS MEYRIAT RIGNAT,46.1427060662,5.3780109646,1,811.0,1,1,1,0,0,0,1,1,1,1,1,1
247,01245,BOHAS MEYRIAT RIGNAT,46.1427060662,5.3780109646,1,811.0,1,1,1,0,0,0,1,1,1,1,1,1
248,01246,MEZERIAT,46.2423102101,5.04725416984,1,2072.0,0,0,1,1,1,1,1,1,1,1,1,1
249,01247,MIJOUX,46.3622451724,6.00902631941,1,379.0,0,0,0,0,0,0,-1,-1,-1,-1,-1,-1
250,01247,MIJOUX,46.3622451724,6.00902631941,1,379.0,0,0,0,0,0,0,-1,-1,-1,-1,-1,-1
251,01248,MIONNAY,45.8955939299,4.92416967439,1,2077.0,1,1,1,1,1,1,-1,1,1,1,1,1
252,01249,MIRIBEL,45.8442099203,4.94106746787,1,9066.0,1,1,0,1,1,1,-1,-1,-1,-1,-1,-1
253,01249,MIRIBEL,45.8442099203,4.94106746787,1,9066.0,1,1,0,1,1,1,-1,-1,-1,-1,-1,-1
254,01249,MIRIBEL,45.8442099203,4.94106746787,1,9066.0,1,1,0,1,1,1,-1,-1,-1,-1,-1,-1
255,01250,MISERIEUX,45.9762325343,4.81028471711,1,1762.0,1,1,1,1,1,1,1,1,1,1,1,1
256,01252,MOGNENEINS,46.1446696076,4.820110702,1,727.0,1,1,0,1,1,1,-1,-1,-1,-1,-1,-1
257,01254,MONTAGNAT,46.1686969123,5.27962107938,1,1646.0,1,1,1,1,1,1,1,1,1,1,1,1
258,01255,MONTAGNIEU,45.799449019,5.46428608859,1,495.0,0,1,0,1,1,1,-1,-1,1,-1,1,-1
259,01257,MONTANGES,46.17325293,5.79006091307,1,330.0,0,0,0,0,0,0,0,0,1,1,1,1
260,01258,MONTCEAUX,46.0962893261,4.80453564172,1,1164.0,1,1,0,0,0,1,-1,1,-1,-1,-1,1
261,01259,MONTCET,46.219333227,5.11149132074,1,665.0,1,1,1,1,1,1,1,1,1,1,1,1
262,01260,LE MONTELLIER,45.9287482486,5.07092815964,1,244.0,0,0,0,0,0,0,0,0,1,1,1,1
263,01261,MONTHIEUX,45.9622791838,4.94555984534,1,599.0,1,0,0,0,1,1,1,1,1,1,1,1
264,01262,MONTLUEL,45.8909006209,5.01987566185,1,6999.0,0,1,0,0,0,0,0,0,1,1,1,1
265,01262,MONTLUEL,45.8909006209,5.01987566185,1,6999.0,0,1,0,0,0,0,0,0,1,1,1,1
266,01262,MONTLUEL,45.8909006209,5.01987566185,1,6999.0,0,1,0,0,0,0,0,0,1,1,1,1
267,01263,MONTMERLE SUR SAONE,46.0849573236,4.7608579486,1,3823.0,1,1,0,1,1,1,-1,1,-1,1,1,1
268,01264,MONTRACOL,46.1867200301,5.11706011755,1,967.0,1,1,1,1,1,0,1,1,1,1,1,1
269,01265,MONTREAL LA CLUSE,46.1795688194,5.59510550127,1,3457.0,1,1,1,1,1,1,1,1,1,1,1,1
270,01266,MONTREVEL EN BRESSE,46.3252811442,5.11295966315,1,2362.0,0,0,1,1,1,1,1,1,1,1,1,1
271,01267,NURIEUX VOLOGNAT,46.1830720992,5.51435812316,1,1058.0,0,0,1,1,1,1,1,1,1,1,1,1
272,01267,NURIEUX VOLOGNAT,46.1830720992,5.51435812316,1,1058.0,0,0,1,1,1,1,1,1,1,1,1,1
273,01268,MURS ET GELIGNIEUX,45.6420014274,5.66039684889,1,241.0,0,0,0,0,0,0,1,1,-1,-1,-1,-1
274,01269,NANTUA,46.1537845403,5.61352793799,1,3713.0,1,1,1,1,1,1,1,1,1,1,1,1
275,01269,NANTUA,46.1537845403,5.61352793799,1,3713.0,1,1,1,1,1,1,1,1,1,1,1,1
276,01272,NEUVILLE LES DAMES,46.1567753049,5.00942432434,1,1504.0,0,0,0,0,0,1,1,1,1,1,1,1
277,01273,NEUVILLE SUR AIN,46.0909654813,5.37349784691,1,1571.0,0,1,1,1,1,1,1,1,1,1,1,1
278,01274,LES NEYROLLES,46.1342937114,5.63714517869,1,637.0,1,1,1,1,1,1,1,1,1,1,1,1
279,01275,NEYRON,45.8184192468,4.9309045685,1,2472.0,1,1,1,1,1,1,-1,-1,-1,1,1,1
280,01276,NIEVROZ,45.8222941077,5.05949629195,1,1488.0,1,1,1,1,1,1,-1,1,-1,1,1,-1
284,01281,ORNEX,46.2774557513,6.09454723599,1,3531.0,1,1,1,1,1,1,1,1,-1,1,1,1
285,01282,OUTRIAZ,46.067796636,5.55697547429,1,256.0,0,0,0,0,0,0,0,0,0,0,0,0
286,01283,OYONNAX,46.2605435859,5.65344320923,1,22650.0,1,1,1,1,0,1,1,0,1,1,0,1
287,01283,OYONNAX,46.2605435859,5.65344320923,1,22650.0,1,1,1,1,0,1,1,0,1,1,0,1
288,01283,OYONNAX,46.2605435859,5.65344320923,1,22650.0,1,1,1,1,0,1,1,0,1,1,0,1
289,01284,OZAN,46.3867168877,4.91805840196,1,618.0,0,0,0,1,1,1,-1,1,1,-1,1,1
290,01285,PARCIEUX,45.9184267932,4.82747423402,1,1095.0,1,1,0,1,1,1,-1,-1,-1,-1,-1,-1
291,01286,PARVES ET NATTAGES,45.7437340183,5.73800737134,1,360.0,1,1,1,1,0,1,1,1,1,1,1,1
292,01286,PARVES ET NATTAGES,45.7437340183,5.73800737134,1,360.0,1,1,1,1,0,1,1,1,1,1,1,1
293,01288,PERON,46.1913554154,5.91968751164,1,2143.0,0,0,1,1,1,1,1,1,1,1,1,1
294,01289,PERONNAS,46.1711903413,5.21802169564,1,6054.0,1,1,1,1,1,1,1,1,1,1,1,1
295,01290,PEROUGES,45.8803945768,5.17955874977,1,1204.0,1,1,1,1,1,1,1,1,1,1,1,1
296,01291,PERREX,46.2465065604,4.97464940331,1,826.0,0,0,1,0,1,0,1,1,1,1,1,1
298,01294,PEYRIEU,45.6762428663,5.67912809192,1,821.0,0,0,0,1,0,0,1,1,1,1,1,-1
299,01295,PEYZIEUX SUR SAONE,46.1226331853,4.82243226719,1,473.0,0,1,0,0,0,1,-1,1,1,-1,1,1
300,01296,PIRAJOUX,46.385801285,5.27417594024,1,360.0,0,0,0,0,0,1,1,0,1,1,1,1
301,01297,PIZAY,45.8928509581,5.08915465965,1,777.0,0,0,0,0,0,1,1,1,1,1,1,1
303,01299,LE PLANTAY,46.0230264227,5.08912046926,1,540.0,0,0,1,0,0,0,1,1,1,1,1,1
304,01301,POLLIAT,46.2463108642,5.13794412439,1,2403.0,1,1,1,1,1,1,1,1,1,1,1,1
306,01303,PONCIN,46.089530586,5.41681266947,1,1644.0,0,0,1,1,1,1,1,1,1,1,1,1
307,01304,PONT D AIN,46.0542077091,5.34703652618,1,2627.0,1,1,1,1,1,1,1,1,1,1,1,1
308,01305,PONT DE VAUX,46.4422864477,4.92862459427,1,2205.0,1,1,0,1,1,1,1,1,1,1,1,-1
309,01306,PONT DE VEYLE,46.2637215091,4.88186068102,1,1593.0,0,1,1,1,1,1,1,1,1,1,1,1
310,01307,PORT,46.155963139,5.57615832883,1,847.0,1,1,1,1,1,1,1,1,1,1,1,1
311,01308,POUGNY,46.1450914685,5.95100479291,1,802.0,0,0,0,1,0,0,-1,-1,-1,-1,-1,-1
313,01310,PREMEYZEL,45.6806263123,5.64396081449,1,234.0,0,0,0,0,0,0,0,0,0,1,1,1
315,01313,PREVESSIN MOENS,46.25827228,6.07223251859,1,5980.0,1,1,0,1,1,1,1,-1,-1,1,1,1
316,01313,PREVESSIN MOENS,46.25827228,6.07223251859,1,5980.0,1,1,0,1,1,1,1,-1,-1,1,1,1
317,01314,PRIAY,46.0197521486,5.28523353803,1,1488.0,0,1,0,0,0,0,1,0,0,0,0,0
319,01317,RAMASSE,46.1905550894,5.35572056985,1,250.0,1,1,1,0,1,1,1,1,1,1,1,1
320,01318,RANCE,45.9673905154,4.86343025951,1,641.0,1,1,1,1,1,1,1,1,1,1,1,1
321,01319,RELEVANT,46.0843657897,4.94176845356,1,466.0,1,1,1,1,1,1,1,1,1,1,1,1
322,01320,REPLONGES,46.3077356023,4.8746938271,1,3500.0,1,1,1,1,1,1,1,1,1,1,1,1
323,01321,REVONNAS,46.1615355815,5.33543916388,1,788.0,1,1,1,1,1,1,1,1,1,1,1,1
324,01322,REYRIEUX,45.9367652442,4.82840395968,1,4093.0,1,1,1,1,1,1,1,1,1,1,1,1
325,01323,REYSSOUZE,46.4285569061,4.91285056272,1,929.0,1,1,0,1,1,1,-1,1,-1,1,1,-1
326,01325,RIGNIEUX LE FRANC,45.9518762734,5.16936671105,1,950.0,1,1,1,1,1,0,1,1,1,1,1,1
327,01328,ROMANS,46.1237520756,5.0217131176,1,587.0,0,1,0,0,0,0,1,1,1,1,1,1
329,01330,RUFFIEU,46.0037108867,5.65322391497,1,202.0,0,0,0,0,0,0,0,0,1,1,1,1
331,01332,ST ANDRE DE BAGE,46.298541568,4.91411565769,1,635.0,1,1,1,1,1,1,1,1,1,1,1,1
332,01333,ST ANDRE DE CORCY,45.927001954,4.95373324492,1,2991.0,1,1,1,1,1,1,1,1,1,1,1,1
333,01334,ST ANDRE D HUIRIAT,46.2140960915,4.91291358797,1,543.0,0,0,0,0,0,0,0,1,1,1,1,1
334,01335,ST ANDRE LE BOUCHOUX,46.1131399612,5.0802376895,1,316.0,0,0,0,0,0,0,1,1,1,1,1,1
335,01336,ST ANDRE SUR VIEUX JONC,46.1492410532,5.14175200148,1,1079.0,1,1,1,0,1,1,1,1,1,1,1,1
336,01337,ST BENIGNE,46.4519173207,4.95309825903,1,1161.0,0,0,1,0,1,1,-1,1,1,1,1,1
337,01338,GROSLEE ST BENOIT,45.6891842277,5.5843972561,1,773.0,0,0,0,0,0,0,-1,-1,-1,-1,-1,-1
338,01338,GROSLEE ST BENOIT,45.6891842277,5.5843972561,1,773.0,0,0,0,0,0,0,-1,-1,-1,-1,-1,-1
339,01339,ST BERNARD,45.9493830581,4.74276628471,1,1375.0,1,1,1,1,1,1,-1,-1,-1,1,1,1
341,01342,STE CROIX,45.895522477,5.04935536228,1,534.0,0,0,0,0,0,0,0,0,1,1,1,1
342,01343,ST CYR SUR MENTHON,46.2754005606,4.96757105158,1,1636.0,0,1,1,1,1,0,1,1,1,1,1,1
343,01344,ST DENIS LES BOURG,46.2111998453,5.18462806771,1,5405.0,1,1,1,1,1,1,1,1,1,1,1,1
344,01345,ST DENIS EN BUGEY,45.9488551151,5.32367701698,1,2178.0,1,1,1,1,1,1,1,1,1,1,1,1
345,01346,ST DIDIER D AUSSIAT,46.3069992095,5.05820697692,1,863.0,0,0,0,0,0,0,1,1,1,1,1,1
346,01347,ST DIDIER DE FORMANS,45.9564926067,4.77766764875,1,1792.0,1,1,1,1,1,1,-1,-1,-1,1,1,1
347,01348,ST DIDIER SUR CHALARONNE,46.1840408682,4.81645666173,1,2776.0,1,0,0,1,1,1,-1,1,1,1,1,-1
348,01349,ST ELOI,45.9322494861,5.15187041178,1,399.0,0,0,0,0,0,0,0,0,0,1,0,0
349,01350,ST ETIENNE DU BOIS,46.2749447261,5.28428557632,1,2441.0,0,1,0,0,1,1,1,1,1,1,1,1
350,01351,ST ETIENNE SUR CHALARONNE,46.1468059584,4.86696454244,1,1468.0,0,1,0,0,0,1,1,1,1,1,1,1
351,01352,ST ETIENNE SUR REYSSOUZE,46.4030398952,5.00605581573,1,531.0,0,0,0,0,0,0,1,0,0,0,0,0
352,01353,STE EUPHEMIE,45.9669798317,4.79478189169,1,1482.0,1,1,1,1,1,1,1,1,1,1,1,1
353,01354,ST GENIS POUILLY,46.254539333,6.0362907345,1,8914.0,1,1,1,1,1,1,1,1,1,1,1,1
354,01355,ST GENIS SUR MENTHON,46.2815955593,5.01311826405,1,408.0,0,1,1,0,0,0,0,0,0,0,0,0
356,01357,ST GERMAIN DE JOUX,46.1821955394,5.74672259773,1,480.0,0,0,0,0,0,0,0,0,1,1,1,1
357,01358,ST GERMAIN LES PAROISSES,45.7709749249,5.61753440834,1,387.0,0,0,0,0,0,0,0,0,0,1,1,1
358,01359,ST GERMAIN SUR RENON,46.0797285417,5.06090903982,1,236.0,0,0,0,0,0,1,1,1,1,1,1,1
359,01360,ST JEAN DE GONVILLE,46.2178585727,5.94203093769,1,1496.0,0,1,1,1,1,1,1,1,1,1,1,1
360,01361,ST JEAN DE NIOST,45.8405002569,5.21167430462,1,1421.0,1,0,1,0,1,1,1,1,1,1,1,1
361,01362,ST JEAN DE THURIGNEUX,45.9598424323,4.89936410681,1,710.0,0,1,0,1,1,0,1,1,1,1,1,1
362,01363,ST JEAN LE VIEUX,46.0291437714,5.38252835538,1,1609.0,1,1,1,1,1,1,1,1,1,1,1,1
363,01364,ST JEAN SUR REYSSOUZE,46.3972479854,5.06297763777,1,744.0,0,0,0,0,0,0,1,0,1,0,1,0
364,01365,ST JEAN SUR VEYLE,46.2683632132,4.92198366998,1,1082.0,1,1,1,1,1,1,1,1,1,1,1,1
365,01366,STE JULIE,45.8819723176,5.28452304614,1,889.0,0,1,0,0,0,0,1,0,0,1,1,1
366,01367,ST JULIEN SUR REYSSOUZE,46.3997655501,5.10354296019,1,668.0,0,0,0,0,0,1,1,1,1,1,1,1
367,01368,ST JULIEN SUR VEYLE,46.2014862081,4.959356342,1,715.0,0,0,0,1,1,1,1,1,1,1,1,1
368,01369,ST JUST,46.1929758576,5.28494181398,1,881.0,1,1,1,1,1,1,1,1,1,1,1,1
369,01370,ST LAURENT SUR SAONE,46.3051486294,4.83949202669,1,1749.0,1,1,1,1,1,1,1,1,1,1,1,1
370,01371,ST MARCEL,45.9485803654,4.9896671017,1,1212.0,1,1,0,0,1,1,1,1,1,1,1,1
371,01372,ST MARTIN DE BAVEL,45.848212674,5.67889099153,1,443.0,0,0,0,0,0,1,1,1,1,1,1,1
372,01373,ST MARTIN DU FRENE,46.135983782,5.57106016428,1,1077.0,1,1,1,1,1,1,1,1,1,1,1,1
373,01374,ST MARTIN DU MONT,46.1061500835,5.32551470817,1,1651.0,1,1,1,1,1,1,1,1,1,1,1,1
374,01375,ST MARTIN LE CHATEL,46.291445874,5.12291715091,1,790.0,1,0,1,1,1,1,1,1,1,1,1,1
375,01376,ST MAURICE DE BEYNOST,45.8343709108,4.97726215174,1,3865.0,1,1,1,1,1,1,-1,-1,-1,-1,-1,-1
376,01378,ST MAURICE DE GOURDANS,45.8200191939,5.16980415584,1,2498.0,1,1,1,1,1,1,-1,-1,-1,1,1,1
377,01379,ST MAURICE DE REMENS,45.9527471237,5.2708276475,1,709.0,1,1,1,1,1,1,1,1,1,1,1,1
378,01380,ST NIZIER LE BOUCHOUX,46.4528537121,5.1759906585,1,703.0,0,0,0,0,0,0,0,0,1,1,1,1
379,01381,ST NIZIER LE DESERT,46.052861561,5.14246131764,1,880.0,0,1,0,0,0,0,1,1,1,1,1,1
380,01382,STE OLIVE,46.0142006121,4.93624894982,1,303.0,0,0,0,0,1,0,1,1,1,1,1,1
381,01383,ST PAUL DE VARAX,46.0956691617,5.12762470203,1,1551.0,0,1,0,0,0,1,1,1,1,1,1,1
382,01384,ST RAMBERT EN BUGEY,45.9504631708,5.44017084612,1,2164.0,0,0,0,1,1,1,1,1,1,1,1,1
383,01385,ST REMY,46.1846642149,5.16771354778,1,906.0,1,1,1,1,1,1,1,1,1,1,1,1
384,01386,ST SORLIN EN BUGEY,45.886308438,5.37608915006,1,1061.0,1,1,1,1,1,1,-1,-1,-1,1,-1,-1
386,01388,ST TRIVIER DE COURTES,46.4612969335,5.06679195727,1,1013.0,0,0,0,0,1,1,-1,-1,-1,-1,-1,-1
387,01389,ST TRIVIER SUR MOIGNANS,46.0618477991,4.90158948884,1,1877.0,0,0,1,1,1,1,1,1,1,1,1,1
388,01390,ST VULBAS,45.8222315102,5.27019602929,1,957.0,0,0,1,1,1,1,-1,-1,-1,-1,-1,-1
389,01391,SALAVRE,46.3635396668,5.34742387197,1,284.0,0,0,0,0,0,1,-1,-1,1,1,-1,-1
390,01392,SAMOGNAT,46.2648715781,5.58607689306,1,718.0,1,1,1,1,1,1,-1,-1,-1,1,1,1
391,01393,SANDRANS,46.0656961548,4.98282673172,1,524.0,0,1,0,0,0,0,0,0,1,1,1,1
392,01396,SAULT BRENAZ,45.8654038798,5.40416104083,1,1043.0,1,1,0,1,1,1,-1,-1,-1,-1,-1,1
393,01397,SAUVERNY,46.3126908233,6.11043836433,1,1078.0,1,1,1,1,1,1,1,1,1,1,1,1
394,01398,SAVIGNEUX,45.997346828,4.8576200906,1,1204.0,1,1,1,1,1,1,1,1,1,1,1,1
395,01399,SEGNY,46.2935928404,6.07287743792,1,1649.0,1,1,1,1,1,1,1,1,1,1,1,1
397,01401,SERGY,46.2626243003,5.98914553194,1,1977.0,1,1,1,1,1,1,1,1,1,1,1,1
398,01402,SERMOYER,46.4981991944,4.97856020441,1,669.0,0,0,0,0,0,0,-1,-1,-1,-1,-1,-1
399,01403,SERRIERES DE BRIORD,45.8133219416,5.44125880379,1,1174.0,1,1,0,1,1,1,-1,-1,-1,1,-1,-1
401,01405,SERVAS,46.1385540577,5.17887070992,1,1184.0,1,1,1,1,1,1,1,1,1,1,1,1
403,01407,SEYSSEL,45.9484118176,5.82616979887,1,942.0,0,1,0,0,1,0,1,-1,-1,-1,-1,-1
404,01408,SIMANDRE SUR SURAN,46.2340471594,5.42240815305,1,650.0,1,0,1,1,1,1,1,1,1,1,1,1
405,01410,SONTHONNAX LA MONTAGNE,46.2229768712,5.50566888767,1,320.0,1,1,1,1,1,1,1,1,1,1,1,1
406,01410,SONTHONNAX LA MONTAGNE,46.2229768712,5.50566888767,1,320.0,1,1,1,1,1,1,1,1,1,1,1,1
407,01411,SOUCLIN,45.8781798572,5.43058627512,1,261.0,1,1,0,0,1,1,1,0,0,0,0,1
408,01412,SULIGNAT,46.1735383313,4.95772382526,1,569.0,0,0,0,0,0,0,1,1,1,1,1,1
410,01414,SUTRIEU,45.9311367808,5.64988248129,1,235.0,0,0,0,0,0,0,0,0,0,0,0,1
411,01414,SUTRIEU,45.9311367808,5.64988248129,1,235.0,0,0,0,0,0,0,0,0,0,0,0,1
412,01414,SUTRIEU,45.9311367808,5.64988248129,1,235.0,0,0,0,0,0,0,0,0,0,0,0,1
413,01415,TALISSIEU,45.8637167128,5.72090411074,1,425.0,0,0,0,0,0,1,1,1,1,1,1,1
414,01416,TENAY,45.922698278,5.51453923595,1,1120.0,0,0,0,0,0,1,1,1,1,1,1,1
415,01417,THEZILLIEU,45.8931883593,5.59700638944,1,324.0,0,0,0,0,0,0,0,0,0,0,0,0
416,01418,THIL,45.8169214201,5.0184098869,1,1070.0,1,1,0,1,1,1,-1,-1,-1,-1,-1,-1
417,01419,THOIRY,46.2435475879,5.96506297987,1,5205.0,0,1,1,1,1,1,1,0,0,1,0,1
418,01420,THOISSEY,46.1700943481,4.79387095814,1,1540.0,1,1,0,1,1,1,-1,-1,-1,-1,-1,-1
419,01421,TORCIEU,45.92125055,5.40400282244,1,698.0,1,1,1,1,1,1,1,1,1,1,1,1
420,01422,TOSSIAT,46.1384790158,5.30400055922,1,1406.0,1,1,1,1,1,1,1,1,1,1,1,1
421,01423,TOUSSIEUX,45.959898291,4.82898610612,1,769.0,1,1,1,1,1,1,1,1,1,1,1,1
422,01424,TRAMOYES,45.8745670311,4.9639268325,1,1674.0,1,1,0,1,1,0,1,1,1,1,1,1
423,01425,LA TRANCLIERE,46.0970027075,5.26099875456,1,301.0,0,1,1,0,1,0,1,1,1,1,1,1
424,01426,VAL REVERMONT,46.2803281838,5.36083165162,1,2204.0,1,1,1,1,1,1,1,1,1,1,1,1
425,01426,VAL REVERMONT,46.2803281838,5.36083165162,1,2204.0,1,1,1,1,1,1,1,1,1,1,1,1
426,01426,VAL REVERMONT,46.2803281838,5.36083165162,1,2204.0,1,1,1,1,1,1,1,1,1,1,1,1
427,01427,TREVOUX,45.940671655,4.7714415007,1,6730.0,1,1,0,1,1,1,-1,-1,-1,1,1,-1
429,01429,VANDEINS,46.217806795,5.08189056957,1,619.0,0,0,1,1,1,1,1,1,1,1,1,1
430,01430,VARAMBON,46.0433928197,5.2947944594,1,521.0,1,1,1,0,1,0,1,1,1,1,1,1
431,01431,VAUX EN BUGEY,45.9201205456,5.36353184193,1,1169.0,1,1,1,1,1,1,1,1,1,1,1,1
432,01432,VERJON,46.3459093717,5.34853019646,1,250.0,0,0,0,0,0,1,1,1,1,1,1,1
433,01433,VERNOUX,46.4848229774,5.10590413121,1,285.0,0,0,0,0,1,1,-1,-1,-1,-1,-1,-1
434,01434,VERSAILLEUX,45.9854373478,5.11204819151,1,332.0,0,1,0,0,0,0,1,0,1,1,1,1
435,01435,VERSONNEX,46.2997631425,6.10057952207,1,2144.0,1,1,1,1,1,1,1,1,1,1,1,1
436,01436,VESANCY,46.3610768127,6.08470665475,1,526.0,1,1,1,0,0,1,1,1,1,1,1,1
437,01437,VESCOURS,46.4743960759,5.02617426573,1,208.0,0,0,0,0,1,1,-1,-1,-1,-1,-1,-1
439,01441,VIEU D IZENAVE,46.0853386653,5.54922100161,1,693.0,0,0,0,0,0,0,0,0,0,0,1,0
440,01442,VIEU,45.8898392612,5.68999399947,1,380.0,0,0,0,0,0,1,1,1,1,1,1,1
441,01443,VILLARS LES DOMBES,45.9927150222,5.04507856642,1,4399.0,1,1,1,1,1,1,1,1,1,1,1,1
442,01444,VILLEBOIS,45.8485624628,5.44711117486,1,1153.0,1,1,0,1,1,1,-1,-1,1,-1,1,-1
443,01445,VILLEMOTIER,46.3458538978,5.31036160991,1,632.0,0,0,0,0,0,1,1,1,1,1,1,1
444,01446,VILLENEUVE,46.0319048788,4.85182526102,1,1383.0,0,0,0,0,0,0,1,1,1,1,1,1
445,01447,VILLEREVERSURE,46.1926750369,5.3947679407,1,1208.0,0,0,0,0,0,0,0,0,1,1,1,1
446,01448,VILLES,46.0954293058,5.7569250415,1,385.0,0,0,0,0,0,0,0,0,1,1,1,1
447,01449,VILLETTE SUR AIN,46.0099989032,5.25214547187,1,673.0,1,1,1,0,0,0,1,0,0,1,1,0
448,01450,VILLIEU LOYES MOLLON,45.932014998,5.22953071636,1,3095.0,1,1,1,1,1,1,1,1,1,1,1,1
449,01450,VILLIEU LOYES MOLLON,45.932014998,5.22953071636,1,3095.0,1,1,1,1,1,1,1,1,1,1,1,1
450,01450,VILLIEU LOYES MOLLON,45.932014998,5.22953071636,1,3095.0,1,1,1,1,1,1,1,1,1,1,1,1
451,01451,VIRIAT,46.2508985632,5.22302249216,1,6006.0,0,1,1,1,1,1,1,1,1,1,1,1
452,01452,VIRIEU LE GRAND,45.8464417872,5.63971940347,1,1156.0,0,0,0,0,0,0,0,0,1,1,1,1
453,01453,VIRIEU LE PETIT,45.9063608209,5.73707051523,1,309.0,0,0,0,0,0,0,0,0,1,1,1,1
454,01454,VIRIGNIN,45.7267387762,5.71282330936,1,855.0,1,1,1,1,1,1,1,-1,1,1,1,1
456,01457,VONNAS,46.2168871367,4.99744373712,1,2790.0,0,0,1,1,1,1,1,1,1,1,1,1
457,02001,ABBECOURT,49.5991518653,3.17708232927,2,528.0,1,1,1,0,0,0,1,1,1,1,1,1
458,02002,ACHERY,49.6936187791,3.39735632148,2,587.0,1,0,0,0,0,0,1,1,1,1,1,1
459,02003,ACY,49.3471963534,3.41817609834,2,959.0,1,1,1,1,1,1,1,1,1,1,1,1
460,02004,AGNICOURT ET SECHELLES,49.7166573626,3.96043211816,2,207.0,0,0,0,0,0,0,0,0,0,0,0,0
461,02005,AGUILCOURT,49.393650796,3.96803679426,2,349.0,0,1,0,0,1,0,-1,-1,-1,-1,1,1
462,02006,AISONVILLE ET BERNOVILLE,49.930148162,3.51120205593,2,288.0,0,0,0,0,0,0,0,0,0,0,0,0
464,02008,AIZY JOUY,49.4384256824,3.51149185429,2,287.0,0,0,0,0,1,0,1,1,1,1,1,1
465,02008,AIZY JOUY,49.4384256824,3.51149185429,2,287.0,0,0,0,0,1,0,1,1,1,1,1,1
466,02009,ALAINCOURT,49.7667120841,3.36639043616,2,503.0,0,0,0,1,1,1,1,1,1,1,1,1
468,02011,AMBLENY,49.3762672939,3.18334679178,2,1134.0,0,0,0,0,0,1,1,1,1,1,1,1
470,02013,AMIFONTAINE,49.498787026,3.92278993322,2,418.0,0,0,0,0,0,0,1,0,0,1,1,1
471,02014,AMIGNY ROUY,49.6108275885,3.30289341579,2,731.0,1,1,1,1,1,1,1,1,1,1,1,1
474,02017,ANGUILCOURT LE SART,49.6940879195,3.42823182437,2,292.0,0,0,0,0,0,0,1,1,1,1,1,1
475,02018,ANIZY LE CHATEAU,49.5045058305,3.43129584952,2,1895.0,1,1,1,1,1,1,1,1,1,1,1,1
476,02019,ANNOIS,49.7210674108,3.17611501401,2,383.0,0,0,0,1,1,1,1,1,1,1,1,1
477,02020,ANY MARTIN RIEUX,49.8823706752,4.22351346907,2,476.0,0,0,0,0,0,1,1,1,1,1,1,1
479,02022,ARCY STE RESTITUE,49.2548799371,3.47829076337,2,427.0,0,0,0,0,0,0,0,0,0,0,1,1
480,02022,ARCY STE RESTITUE,49.2548799371,3.47829076337,2,427.0,0,0,0,0,0,0,0,0,0,0,1,1
483,02025,ARTEMPS,49.7617999337,3.19725095546,2,359.0,0,0,0,0,0,0,1,1,1,1,1,1
484,02027,ASSIS SUR SERRE,49.6803739117,3.55491692691,2,275.0,0,0,0,0,0,0,0,0,0,0,0,0
485,02028,ATHIES SOUS LAON,49.5757750686,3.69006632109,2,2515.0,1,1,1,1,1,1,1,1,1,1,1,1
486,02029,ATTILLY,49.8554489068,3.15363305662,2,384.0,0,0,0,0,0,1,1,1,1,1,1,1
487,02030,AUBENCHEUL AUX BOIS,50.0239903854,3.26103215604,2,310.0,0,0,0,0,0,0,-1,-1,-1,1,1,1
488,02031,AUBENTON,49.8252306759,4.19066939985,2,713.0,0,0,0,0,0,0,0,0,1,1,1,1
489,02032,AUBIGNY AUX KAISNES,49.7721524634,3.1192565988,2,242.0,1,1,0,0,0,0,-1,-1,-1,-1,-1,-1
492,02035,AUDIGNY,49.8660645425,3.6312599901,2,265.0,1,1,1,1,1,0,1,1,1,1,1,1
494,02037,AULNOIS SOUS LAON,49.6198117499,3.60981962105,2,1292.0,0,1,0,0,0,0,1,0,0,0,1,1
498,02041,AUTREVILLE,49.5860875305,3.23602708427,2,822.0,1,1,1,1,1,1,1,1,1,1,1,1
499,02042,AZY SUR MARNE,49.0039701095,3.35913214045,2,387.0,1,1,1,1,1,1,1,1,1,1,1,1
502,02046,BARENTON BUGNY,49.6218589779,3.66103056579,2,589.0,0,0,0,0,0,0,1,1,0,1,1,1
505,02049,BARISIS AUX BOIS,49.577979369,3.32804487461,2,723.0,0,0,0,0,0,1,1,1,1,1,1,1
506,02050,BARZY EN THIERACHE,50.0395375873,3.74901595409,2,306.0,0,0,0,0,0,1,-1,-1,-1,1,1,1
507,02051,BARZY SUR MARNE,49.0906196202,3.56214117254,2,386.0,0,0,1,1,1,1,1,1,1,1,1,1
509,02053,VALLEES EN CHAMPAGNE,48.9896915811,3.60486686026,2,288.0,0,0,0,0,0,0,1,1,1,1,1,1
510,02053,VALLEES EN CHAMPAGNE,48.9896915811,3.60486686026,2,288.0,0,0,0,0,0,0,1,1,1,1,1,1
511,02053,VALLEES EN CHAMPAGNE,48.9896915811,3.60486686026,2,288.0,0,0,0,0,0,0,1,1,1,1,1,1
512,02054,BAZOCHES SUR VESLES,49.3070586788,3.61583126589,2,457.0,0,1,0,0,0,1,1,1,1,1,1,1
515,02057,BEAUREVOIR,49.9965608612,3.32970842537,2,1512.0,0,0,0,0,0,1,-1,-1,-1,-1,1,1
516,02058,BEAURIEUX,49.402806797,3.75287161991,2,793.0,0,0,0,0,0,1,1,1,1,1,1,1
517,02059,BEAUTOR,49.648319958,3.33811188104,2,2642.0,1,1,1,1,1,1,1,1,1,1,1,1
518,02060,BEAUVOIS EN VERMANDOIS,49.8339921767,3.10282045546,2,278.0,0,0,0,0,0,0,-1,-1,-1,-1,-1,1
519,02061,BECQUIGNY,50.0158703814,3.45898644538,2,284.0,0,0,0,0,1,1,-1,-1,-1,-1,-1,-1
521,02063,BELLENGLISE,49.9261057081,3.2441994692,2,386.0,0,0,0,0,0,1,1,1,1,1,1,1
522,02064,BELLEU,49.3567574344,3.34051688283,2,3881.0,1,1,1,1,1,1,1,1,1,1,1,1
523,02065,BELLICOURT,49.9592991729,3.23020850852,2,636.0,0,0,0,0,0,0,1,1,1,1,1,1
524,02066,BENAY,49.755094123,3.30909898139,2,213.0,0,0,1,0,1,0,1,1,1,1,1,1
525,02067,BERGUES SUR SAMBRE,50.0294686238,3.711371001,2,220.0,0,0,0,0,0,1,1,1,1,1,1,-1
528,02070,BERNOT,49.8793651304,3.48665456392,2,459.0,0,0,0,0,0,0,1,0,0,0,0,0
529,02071,BERNY RIVIERE,49.4113288887,3.14975272702,2,613.0,0,0,0,0,0,1,-1,1,-1,-1,-1,-1
531,02073,BERRY AU BAC,49.4084985083,3.8985497785,2,575.0,0,1,0,0,0,0,1,1,-1,-1,1,-1
532,02074,BERTAUCOURT EPOURDON,49.6276056573,3.39748988886,2,610.0,1,1,1,1,1,1,1,1,1,1,1,1
533,02075,BERTHENICOURT,49.7788058177,3.37247241058,2,214.0,0,0,0,0,0,1,1,1,1,1,1,1
535,02077,BERZY LE SEC,49.3172125296,3.29666086699,2,396.0,1,1,1,1,1,0,1,1,1,1,1,1
538,02080,BESNY ET LOIZY,49.5928792816,3.57657238799,2,372.0,1,1,1,0,1,1,1,1,1,1,1,1
539,02081,BETHANCOURT EN VAUX,49.6290547772,3.14064657935,2,420.0,0,1,0,0,0,0,-1,-1,1,-1,-1,-1
541,02083,BEUVARDES,49.1308547007,3.49165019107,2,721.0,0,1,0,0,0,0,1,0,0,1,1,1
542,02084,BEZU LE GUERY,49.0102591835,3.22764610411,2,259.0,1,1,1,1,1,1,1,1,1,-1,1,1
543,02085,BEZU ST GERMAIN,49.1046732888,3.40812513224,2,959.0,0,1,1,0,0,0,0,0,0,1,1,1
544,02086,BICHANCOURT,49.578776546,3.21263017443,2,1041.0,1,1,1,1,1,0,1,1,1,1,1,1
547,02089,BILLY SUR AISNE,49.3556556532,3.37609947556,2,1081.0,1,1,1,1,1,1,1,1,1,1,1,1
548,02090,BILLY SUR OURCQ,49.2215032882,3.29903267663,2,215.0,0,0,1,0,0,0,0,0,0,0,0,0
550,02093,BLERANCOURT,49.5076223945,3.15179502187,2,1262.0,0,0,0,0,0,1,-1,-1,-1,1,1,1
551,02094,BLESMES,49.0264919363,3.46405474705,2,371.0,0,1,1,1,1,1,1,1,1,1,1,1
552,02095,BOHAIN EN VERMANDOIS,49.989032874,3.46522354976,2,5976.0,0,0,0,1,1,1,1,1,1,1,1,1
554,02097,BONCOURT,49.6264861998,3.956447719,2,250.0,0,0,0,0,0,1,1,1,1,1,1,1
555,02098,BONNEIL,49.0082419817,3.3459478468,2,402.0,1,1,1,0,1,1,1,1,1,1,1,1
556,02099,BONNESVALYN,49.1264049496,3.32541661771,2,242.0,0,0,1,0,1,0,1,1,1,1,1,1
558,02101,BOSMONT SUR SERRE,49.7390653213,3.86733568391,2,206.0,0,0,0,0,0,0,0,0,0,0,1,1
560,02103,BOUE,50.0114554001,3.71432024852,2,1265.0,0,0,0,0,0,1,1,1,1,1,1,1
562,02105,BOURESCHES,49.0671787396,3.31728226934,2,203.0,0,0,1,1,1,0,1,1,1,1,1,1
563,02106,BOURG ET COMIN,49.4022354002,3.65944342757,2,754.0,0,0,0,0,0,1,1,1,1,1,1,1
566,02109,LA BOUTEILLE,49.8778828965,3.96243530235,2,502.0,0,1,1,1,1,1,1,1,1,1,1,1
567,02110,BRAINE,49.3484719318,3.53596629744,2,2162.0,0,0,0,0,0,0,1,1,1,1,1,1
568,02111,BRANCOURT EN LAONNOIS,49.5176286609,3.41282321335,2,677.0,1,1,1,0,0,1,1,1,1,1,1,1
569,02112,BRANCOURT LE GRAND,49.98081057,3.39391192109,2,619.0,0,0,0,0,1,1,1,1,1,1,1,1
570,02114,BRASLES,49.0567927241,3.42453409652,2,1318.0,1,1,1,1,1,1,1,1,1,1,1,1
571,02115,BRAYE EN LAONNOIS,49.4375773374,3.60977976284,2,223.0,0,0,0,0,0,1,0,0,0,0,1,1
575,02119,BRECY,49.1398626041,3.42373097034,2,352.0,1,1,1,1,1,1,1,1,1,1,1,1
577,02121,BRENY,49.1842783438,3.34972495405,2,268.0,0,0,1,0,0,1,1,1,1,1,1,1
579,02123,BRISSAY CHOIGNY,49.7228299725,3.39639768252,2,317.0,0,0,0,1,1,0,1,1,1,1,1,1
580,02124,BRISSY HAMEGICOURT,49.7432786375,3.39968837909,2,639.0,0,0,0,1,1,1,1,1,1,1,1,1
581,02125,BRUMETZ,49.1103074474,3.15291445147,2,222.0,1,1,0,0,0,1,-1,-1,-1,-1,-1,-1
582,02126,BRUNEHAMEL,49.7718100626,4.18649398572,2,538.0,0,0,0,0,0,0,0,0,1,1,1,1
583,02127,BRUYERES SUR FERE,49.1996571467,3.44535846468,2,206.0,1,1,1,0,0,0,1,1,1,1,1,1
584,02128,BRUYERES ET MONTBERAULT,49.5239615523,3.66954693798,2,1576.0,0,1,1,1,1,1,1,1,1,1,1,1
587,02131,BUCY LE LONG,49.3884447185,3.39828602712,2,1955.0,1,1,1,1,1,1,1,1,1,1,1,1
589,02133,BUCY LES PIERREPONT,49.6467998089,3.90358311553,2,416.0,0,0,0,0,0,1,1,1,1,1,1,1
590,02134,BUIRE,49.9070296259,4.05674542304,2,884.0,1,1,1,1,1,1,1,1,1,1,1,1
591,02135,BUIRONFOSSE,49.9577111138,3.838016082,2,1189.0,0,0,0,0,0,0,0,0,0,1,1,1
595,02139,CAILLOUEL CREPIGNY,49.6176055636,3.12169527347,2,420.0,0,0,0,0,0,1,-1,-1,-1,-1,1,-1
596,02140,CAMELIN,49.5205248253,3.12854853594,2,442.0,0,0,0,0,0,1,-1,-1,-1,1,1,1
597,02140,CAMELIN,49.5205248253,3.12854853594,2,442.0,0,0,0,0,0,1,-1,-1,-1,1,1,1
598,02141,LA CAPELLE,49.9732109539,3.91398483546,2,1853.0,0,0,0,1,0,1,1,1,1,1,1,1
599,02142,CASTRES,49.8013894137,3.25325245088,2,231.0,0,1,0,0,0,0,1,0,1,1,1,1
602,02145,CAUMONT,49.6372659106,3.17347612819,2,562.0,0,1,0,0,0,0,0,0,0,1,1,1
604,02148,CELLES SUR AISNE,49.4159264546,3.47446927431,2,256.0,0,0,0,0,1,0,1,1,1,1,1,1
609,02153,CESSIERES,49.5595788079,3.50190405701,2,470.0,0,1,1,0,1,0,1,1,1,1,1,1
610,02154,CHACRISE,49.3002009035,3.39759102537,2,312.0,0,1,0,0,0,0,1,0,0,1,1,1
612,02156,CHALANDRY,49.6702675165,3.64445509533,2,217.0,0,0,0,1,1,0,1,1,1,1,1,1
613,02157,CHAMBRY,49.5986366056,3.67200832611,2,718.0,0,1,0,0,1,1,1,1,1,1,1,1
614,02158,CHAMOUILLE,49.4720646954,3.67062673062,2,260.0,0,0,0,0,0,0,0,0,0,0,1,1
615,02159,CHAMPS,49.5434967943,3.2618311238,2,293.0,0,0,0,0,0,0,1,0,1,1,1,1
616,02160,CHAOURSE,49.7007898116,3.98562292281,2,535.0,0,0,0,0,0,0,1,1,1,1,1,1
617,02162,LA CHAPELLE SUR CHEZY,48.9492049177,3.37662807022,2,281.0,1,1,1,1,1,1,1,1,1,1,1,1
618,02163,CHARLY SUR MARNE,48.9898678258,3.29365157876,2,2739.0,1,1,1,1,1,1,1,1,1,1,1,1
619,02164,LE CHARMEL,49.1121866037,3.54125960951,2,322.0,0,0,1,0,1,1,1,1,1,1,1,1
620,02165,CHARMES,49.6508532429,3.38525104222,2,1659.0,1,1,1,1,1,1,1,1,1,1,1,1
621,02166,CHARTEVES,49.0898127369,3.50871838479,2,368.0,0,0,1,1,1,1,1,1,1,1,1,1
622,02167,CHASSEMY,49.3783410842,3.50271467967,2,803.0,0,0,0,1,1,0,1,1,1,1,1,1
623,02168,CHATEAU THIERRY,49.0564070801,3.38160004843,2,14480.0,1,1,1,1,1,1,1,1,1,1,1,1
627,02172,CHAUDUN,49.3150223009,3.25276338247,2,261.0,0,0,0,0,0,0,0,0,0,0,0,0
628,02173,CHAUNY,49.619880673,3.21875355041,2,11983.0,1,1,1,1,1,1,1,1,1,1,1,1
629,02174,CHAVIGNON,49.4794437147,3.51936895626,2,762.0,0,1,0,0,1,1,1,1,1,1,1,1
634,02179,CHERY CHARTREUVE,49.2556867214,3.60484629397,2,341.0,0,0,0,0,0,1,1,1,1,1,1,1
635,02180,CHERY LES POUILLY,49.6488389918,3.59416271271,2,673.0,0,0,0,0,0,0,0,0,0,0,1,1
639,02184,CHEVRESIS MONCEAU,49.7616780422,3.5837583969,2,356.0,0,0,0,0,0,0,0,0,0,0,0,0
640,02185,CHEZY EN ORXOIS,49.1268031885,3.16759094422,2,360.0,0,1,0,0,0,1,-1,-1,-1,-1,-1,-1
641,02186,CHEZY SUR MARNE,48.983996655,3.38226485102,2,1327.0,0,1,1,1,1,1,1,1,1,1,1,1
642,02187,CHIERRY,49.035155356,3.43302324278,2,1055.0,1,1,1,1,1,1,1,1,1,1,1,1
644,02189,CHIVRES EN LAONNOIS,49.6268606782,3.85603255601,2,367.0,0,0,0,0,0,1,1,1,1,1,1,1
645,02190,CHIVRES VAL,49.4029298198,3.43836038727,2,585.0,1,1,1,0,1,1,1,1,1,1,1,1
646,02191,CHIVY LES ETOUVELLES,49.5326303582,3.58562168803,2,503.0,0,1,1,1,1,1,1,1,1,1,1,1
647,02192,CHOUY,49.2167334121,3.24708004454,2,395.0,0,0,1,0,0,0,0,0,0,0,0,0
649,02194,CILLY,49.7490011958,3.84000022806,2,222.0,0,0,0,0,0,0,1,1,1,1,1,1
650,02195,CIRY SALSOGNE,49.3674868367,3.46778299062,2,842.0,0,1,1,0,1,0,1,1,1,1,1,1
651,02196,CLACY ET THIERRET,49.5524137158,3.56557185412,2,346.0,1,1,1,1,1,1,1,1,1,1,1,1
652,02197,CLAIRFONTAINE,49.9739945177,3.98660655282,2,569.0,0,0,0,0,0,1,1,1,1,1,1,1
653,02198,CLAMECY,49.4281077825,3.36378754787,2,223.0,0,0,0,0,0,0,1,0,0,0,1,1
654,02199,CLASTRES,49.7488769741,3.2302033407,2,611.0,0,0,1,1,1,1,1,1,1,1,1,1
656,02201,COEUVRES ET VALSERY,49.3295432232,3.15290453511,2,462.0,0,0,0,0,0,0,0,1,1,1,1,1
657,02203,COINCY,49.1632280955,3.43633795455,2,1310.0,1,1,1,1,1,1,1,1,1,1,1,1
662,02208,CONCEVREUX,49.3764478648,3.78830446161,2,259.0,0,0,0,0,0,1,1,1,1,1,1,1
663,02209,CONDE EN BRIE,49.0016101753,3.56116999962,2,656.0,0,0,1,0,0,1,1,1,1,1,1,1
664,02210,CONDE SUR AISNE,49.4007552828,3.46571591087,2,417.0,0,1,0,0,1,1,1,1,1,1,1,1
665,02211,CONDE SUR SUIPPE,49.4138370327,3.94498449027,2,229.0,1,1,1,1,1,0,1,1,1,1,1,1
666,02212,CONDREN,49.6370236167,3.27726632135,2,707.0,1,1,1,1,1,1,1,1,1,1,1,1
667,02213,CONNIGIS,49.0359363932,3.53287282671,2,325.0,0,0,1,1,1,1,1,1,1,1,1,1
669,02215,CORBENY,49.4620558975,3.82654082441,2,745.0,0,0,0,0,0,1,1,1,1,1,1,1
670,02216,CORCY,49.2549892095,3.19724367023,2,310.0,0,0,0,0,0,0,0,0,0,0,0,0
671,02217,COUCY LE CHATEAU AUFFRIQUE,49.5159709578,3.31548892957,2,1076.0,0,0,0,0,0,1,1,1,1,1,1,1
672,02218,COUCY LES EPPES,49.5566159059,3.77716711865,2,576.0,0,0,0,0,1,0,1,1,1,1,1,1
673,02219,COUCY LA VILLE,49.5405792355,3.34372156034,2,213.0,0,0,0,0,0,1,1,1,1,1,1,1
674,02220,COULONGES COHAN,49.1980463524,3.62776592985,2,428.0,0,0,0,0,0,0,0,0,0,0,0,0
675,02220,COULONGES COHAN,49.1980463524,3.62776592985,2,428.0,0,0,0,0,0,0,0,0,0,0,0,0
678,02223,COURBOIN,48.9960917184,3.50690687861,2,296.0,0,0,1,0,0,0,1,1,1,1,1,1
679,02224,COURCELLES SUR VESLE,49.348025885,3.57684035869,2,345.0,0,0,0,0,0,0,1,1,1,1,1,1
681,02226,COURMELLES,49.3434328339,3.30199112892,2,1700.0,1,1,1,1,1,1,1,1,1,1,1,1
683,02228,COURTEMONT VARENNES,49.0715288855,3.54168079771,2,298.0,0,0,1,1,1,1,1,1,1,1,1,1
686,02231,COUVRON ET AUMENCOURT,49.6458776473,3.52446684584,2,1325.0,0,0,0,0,0,0,1,0,0,0,0,0
687,02232,COYOLLES,49.2133089693,3.01306173751,2,388.0,0,1,0,1,1,1,-1,-1,-1,-1,-1,-1
691,02236,CRECY AU MONT,49.4839031807,3.31195074309,2,289.0,0,0,0,0,0,0,1,1,1,1,1,1
692,02237,CRECY SUR SERRE,49.698624191,3.62256564798,2,1454.0,0,0,0,1,1,1,1,1,1,1,1,1
693,02238,CREPY,49.6082534854,3.5125070585,2,1896.0,1,1,1,1,1,1,1,1,1,1,1,1
694,02239,CREZANCY,49.0428713757,3.51138201699,2,1110.0,0,0,1,1,1,1,1,1,1,1,1,1
695,02240,CROIX FONSOMME,49.9306761102,3.39430326005,2,227.0,0,0,0,1,1,1,1,1,1,1,1,1
697,02242,CROUTTES SUR MARNE,48.9791200153,3.24757642131,2,645.0,1,1,0,1,1,1,-1,1,-1,-1,1,1
698,02243,CROUY,49.4078535405,3.36640020468,2,2716.0,1,1,1,0,1,1,1,1,1,1,1,1
700,02245,CUFFIES,49.4081126802,3.32236958826,2,1686.0,1,0,1,0,1,1,1,1,1,1,1,1
701,02246,CUGNY,49.7031009123,3.15424498862,2,576.0,0,0,0,1,0,0,-1,-1,-1,-1,-1,-1
707,02253,CUISY EN ALMONT,49.4207417064,3.24887510168,2,317.0,0,0,0,0,0,0,0,0,1,1,1,1
711,02257,DALLON,49.8240617542,3.23031219742,2,377.0,0,1,0,1,1,1,1,1,1,1,1,1
712,02258,DAMMARD,49.1470522556,3.17719709632,2,416.0,0,1,1,0,1,0,1,1,1,1,1,1
713,02259,DAMPLEUX,49.2414407733,3.14413128827,2,437.0,0,1,0,0,0,0,1,0,1,1,1,1
714,02260,DANIZY,49.6665738585,3.40089557013,2,569.0,1,1,1,1,1,1,1,1,1,1,1,1
715,02261,DERCY,49.709705981,3.68499803784,2,367.0,0,0,0,0,0,0,1,0,1,1,1,1
716,02262,DEUILLET,49.6285991184,3.36051598302,2,234.0,1,1,1,1,1,1,1,1,1,1,1,1
718,02264,DIZY LE GROS,49.6355575735,4.01312880234,2,790.0,0,0,0,0,0,0,0,0,0,0,1,1
721,02267,DOMMIERS,49.3290731499,3.21634686939,2,287.0,0,0,0,0,0,0,0,1,1,1,1,1
722,02268,DOMPTIN,49.0156995656,3.27296497779,2,673.0,1,1,1,1,1,1,1,1,1,1,1,1
728,02274,EBOULEAU,49.6781110152,3.88259465732,2,206.0,0,0,0,0,0,1,1,1,1,1,1,1
729,02275,EFFRY,49.9191180654,3.98790173223,2,353.0,0,1,1,1,1,1,1,1,1,1,1,1
731,02277,EPAGNY,49.471791053,3.25384432012,2,341.0,0,0,0,0,0,0,0,0,1,1,1,1
733,02279,EPAUX BEZU,49.1029988371,3.35359350285,2,588.0,0,0,1,0,1,0,1,1,1,1,1,1
734,02280,EPIEDS,49.1045180167,3.45072347386,2,389.0,0,1,0,0,0,0,0,0,0,1,1,1
735,02281,L EPINE AUX BOIS,48.8992804015,3.44384138078,2,259.0,0,0,0,0,0,0,0,0,0,0,0,0
736,02282,EPPES,49.5523855068,3.73980858367,2,411.0,1,1,1,0,1,1,1,1,1,1,1,1
737,02283,ERLON,49.7348278249,3.70534450333,2,292.0,0,0,0,0,0,0,0,0,0,0,0,0
739,02286,ESQUEHERIES,49.9822300914,3.75309920982,2,850.0,0,0,0,0,0,0,1,1,1,1,1,1
740,02287,ESSIGNY LE GRAND,49.7740780116,3.27214459324,2,1109.0,0,0,1,0,0,0,1,1,1,1,1,1
741,02288,ESSIGNY LE PETIT,49.8961825414,3.36742260207,2,377.0,0,0,0,0,1,1,1,1,1,1,1,1
742,02289,ESSISES,48.9666904843,3.41396491705,2,430.0,0,0,1,1,1,1,1,1,1,1,1,1
743,02290,ESSOMES SUR MARNE,49.0341132047,3.34014174183,2,2741.0,1,1,1,0,0,0,1,1,1,1,1,1
744,02291,ESTREES,49.9705842912,3.2801536166,2,416.0,0,0,0,0,0,0,1,1,1,1,1,1
745,02292,ETAMPES SUR MARNE,49.0317558536,3.41777664616,2,1164.0,1,1,1,1,1,1,1,1,1,1,1,1
746,02293,ETAVES ET BOCQUIAUX,49.9310354275,3.45081301205,2,556.0,0,0,0,1,1,1,1,1,1,1,1,1
747,02294,ETOUVELLES,49.5186450995,3.58156180986,2,223.0,0,1,1,1,1,1,1,1,1,1,1,1
748,02295,ETREAUPONT,49.8962633822,3.92348915288,2,895.0,1,1,0,0,1,1,1,1,1,1,1,1
749,02296,ETREILLERS,49.8325776228,3.15800068609,2,1199.0,0,0,0,1,1,1,1,1,1,1,1,1
751,02298,ETREUX,49.9996010721,3.65890491685,2,1509.0,0,0,0,1,1,1,1,1,1,1,1,1
752,02299,EVERGNICOURT,49.4564306975,4.03631753944,2,566.0,0,0,0,0,0,1,-1,-1,-1,1,1,-1
753,02301,FAUCOUCOURT,49.5334418244,3.46663902605,2,311.0,1,1,1,0,0,1,1,1,1,1,1,1
754,02302,FAVEROLLES,49.227064775,3.17814481548,2,343.0,0,1,0,0,0,0,0,0,0,0,0,0
755,02303,FAYET,49.8710844824,3.25278845948,2,588.0,1,1,1,1,1,1,1,1,1,1,1,1
756,02304,LA FERE,49.6662828073,3.36938834693,2,3037.0,1,1,1,1,1,1,1,1,1,1,1,1
757,02305,FERE EN TARDENOIS,49.1875000917,3.51106425515,2,3270.0,1,1,1,1,1,1,1,1,1,1,1,1
758,02306,LA FERTE CHEVRESIS,49.7409973498,3.55129770695,2,589.0,0,0,0,0,0,0,0,0,0,0,0,0
759,02307,LA FERTE MILON,49.1759874423,3.14237641756,2,2240.0,1,1,0,1,1,1,-1,1,-1,-1,-1,-1
760,02307,LA FERTE MILON,49.1759874423,3.14237641756,2,2240.0,1,1,0,1,1,1,-1,1,-1,-1,-1,-1
761,02308,FESMY LE SART,50.0482154856,3.69825469199,2,490.0,0,0,0,0,0,1,-1,-1,-1,1,-1,-1
762,02308,FESMY LE SART,50.0482154856,3.69825469199,2,490.0,0,0,0,0,0,1,-1,-1,-1,1,-1,-1
763,02309,FESTIEUX,49.5252642949,3.76013631694,2,604.0,1,1,1,1,1,1,1,1,1,1,1,1
764,02310,FIEULAINE,49.9018502295,3.44594045878,2,281.0,0,0,0,0,1,1,1,1,1,1,1,1
766,02312,LA FLAMENGRIE,50.0002036206,3.92466690244,2,1102.0,0,0,0,0,0,1,-1,1,1,1,1,1
767,02313,FLAVIGNY LE GRAND ET BEAURAIN,49.8865505663,3.67406409367,2,473.0,1,1,1,1,1,0,1,1,1,1,1,1
768,02315,FLAVY LE MARTEL,49.7047240534,3.19451403575,2,1636.0,0,0,0,1,1,1,1,1,1,1,1,1
770,02317,FLUQUIERES,49.800435087,3.15658582012,2,213.0,0,0,0,1,1,0,1,1,1,1,1,1
771,02318,FOLEMBRAY,49.5492820594,3.29319165625,2,1504.0,0,0,0,0,0,1,1,1,1,1,1,1
772,02319,FONSOMME,49.9012467271,3.39650664791,2,535.0,0,0,0,0,1,1,1,1,1,1,1,1
773,02320,FONTAINE LES CLERCS,49.8078439274,3.21253412905,2,289.0,0,0,0,1,1,0,1,1,1,1,1,1
774,02321,FONTAINE LES VERVINS,49.8537390603,3.90543025367,2,987.0,0,1,1,0,1,1,1,1,1,1,1,1
775,02322,FONTAINE NOTRE DAME,49.8785724713,3.42380596752,2,384.0,0,0,0,0,1,1,1,1,1,1,1,1
777,02324,FONTENELLE,50.0309452362,3.84625365761,2,289.0,0,0,0,0,0,0,-1,-1,-1,-1,-1,-1
778,02326,FONTENOY,49.4099999437,3.19454758662,2,494.0,0,0,0,0,0,1,1,1,1,1,1,1
780,02328,FOSSOY,49.044990122,3.48523126715,2,577.0,0,0,1,1,1,1,1,1,1,1,1,1
781,02329,FOURDRAIN,49.6194184451,3.46049121118,2,404.0,0,0,0,0,0,0,1,0,0,1,1,0
782,02330,FRANCILLY SELENCY,49.8546596853,3.22822036861,2,465.0,1,1,1,1,1,1,1,1,1,1,1,1
784,02332,FRESNES EN TARDENOIS,49.1427948273,3.54893406985,2,253.0,0,0,0,0,0,0,0,0,0,0,0,0
786,02334,FRESNOY LE GRAND,49.9540724704,3.41858032499,2,3096.0,0,0,0,1,1,1,1,1,1,1,1,1
787,02335,FRESSANCOURT,49.6284783975,3.42727910427,2,210.0,0,0,1,0,1,0,1,1,1,1,1,1
788,02336,FRIERES FAILLOUEL,49.6835552621,3.23680430341,2,985.0,0,0,0,1,1,0,1,1,1,1,1,1
789,02337,FROIDESTREES,49.9427092508,3.91032175248,2,208.0,0,0,0,1,1,0,1,1,1,1,1,1
790,02338,FROIDMONT COHARTILLE,49.6818768902,3.72070844849,2,238.0,0,0,0,0,0,0,0,0,0,0,0,1
791,02339,GANDELU,49.0832089104,3.18156231552,2,679.0,1,1,0,0,0,1,-1,-1,-1,-1,1,-1
792,02340,GAUCHY,49.8234688599,3.28649189661,2,5443.0,1,1,1,1,1,1,1,1,1,1,1,1
793,02341,GERCY,49.8158108138,3.87133277309,2,295.0,0,1,1,0,1,0,1,1,1,1,1,1
798,02346,GIZY,49.6104960814,3.76786152197,2,684.0,0,0,0,1,1,1,1,1,1,1,1,1
799,02347,GLAND,49.0579740538,3.45713931457,2,497.0,1,1,1,0,1,1,1,1,1,1,1,1
803,02352,GOUY,49.9987486908,3.26458305638,2,591.0,0,0,0,0,0,0,-1,-1,-1,-1,1,1
804,02353,GRANDLUP ET FAY,49.6512687794,3.73646950468,2,320.0,0,0,0,0,0,0,0,0,0,0,1,1
806,02355,GRICOURT,49.8869947757,3.23960817466,2,869.0,1,1,1,0,0,1,1,1,1,1,1,1
809,02358,GROUGIS,49.9508110437,3.53098081744,2,385.0,0,0,0,0,0,0,0,0,0,0,1,1
810,02359,GRUGIES,49.8100941328,3.2751623814,2,1121.0,1,1,1,1,1,0,1,1,1,1,1,1
811,02360,GUIGNICOURT,49.4433017606,3.95534582458,2,2111.0,1,1,1,1,1,1,1,1,1,1,1,1
812,02361,GUISE,49.8960415076,3.62476062929,2,5173.0,1,1,1,1,1,1,1,1,1,1,1,1
813,02362,GUIVRY,49.651625761,3.12103476493,2,263.0,0,0,0,0,0,0,-1,-1,-1,1,-1,-1
814,02363,GUNY,49.5120153085,3.26082658052,2,446.0,0,0,0,0,0,0,1,1,1,1,1,1
815,02364,GUYENCOURT,49.3573380108,3.84132930883,2,225.0,0,0,0,0,0,0,-1,-1,-1,-1,-1,-1
816,02366,HANNAPES,49.9771158104,3.61442642232,2,289.0,0,0,0,0,1,0,1,1,1,1,1,1
818,02368,HARAMONT,49.2872759039,3.03148977109,2,611.0,0,0,0,0,0,0,-1,-1,-1,-1,-1,-1
819,02369,HARCIGNY,49.80256362,3.9828364762,2,249.0,0,1,0,0,0,0,0,0,1,1,1,1
820,02370,HARGICOURT,49.9664492878,3.19055510378,2,557.0,0,0,0,0,0,0,-1,-1,-1,-1,-1,-1
821,02371,HARLY,49.8407051764,3.33484724239,2,1707.0,1,1,1,1,1,1,1,1,1,1,1,1
822,02372,HARTENNES ET TAUX,49.2789534457,3.35763287633,2,333.0,0,1,0,0,0,0,0,0,0,1,1,1
823,02373,HARY,49.797388651,3.91927403736,2,222.0,0,1,0,1,1,0,1,1,1,1,1,1
824,02374,LEHAUCOURT,49.911760676,3.27675235436,2,912.0,0,1,0,0,0,1,1,1,1,1,1,1
829,02379,LE HERIE LA VIEVILLE,49.8222697536,3.65376324724,2,239.0,0,0,0,0,0,0,0,0,0,0,1,0
831,02381,HIRSON,49.9426458618,4.10483732841,2,9383.0,1,1,1,1,1,1,1,1,1,1,1,1
832,02382,HOLNON,49.8612556888,3.20085325892,2,1433.0,0,1,0,0,0,1,1,1,1,1,1,1
833,02383,HOMBLIERES,49.8577543083,3.37495127984,2,1471.0,0,1,0,0,1,1,1,1,1,1,1,1
836,02386,IRON,49.9504309458,3.6652978953,2,222.0,0,0,0,0,1,0,1,1,1,1,1,1
837,02387,ITANCOURT,49.803442885,3.34942752527,2,1118.0,0,1,0,0,1,0,1,1,1,1,1,1
838,02388,IVIERS,49.7858863872,4.13552902559,2,210.0,0,0,0,0,0,0,0,0,0,0,1,1
839,02389,JAULGONNE,49.0895236955,3.53359601877,2,666.0,0,0,1,1,1,1,1,1,1,1,1,1
840,02390,JEANCOURT,49.9288562683,3.14778805313,2,238.0,1,1,0,1,0,0,-1,-1,-1,-1,-1,-1
841,02391,JEANTES,49.8127276252,4.06715502895,2,217.0,0,0,0,0,0,0,0,0,1,1,1,1
842,02392,JONCOURT,49.9601487798,3.30407272701,2,322.0,0,0,0,0,0,0,1,1,1,1,1,1
846,02397,JUSSY,49.7172050931,3.23611732777,2,1243.0,0,0,1,1,1,1,1,1,1,1,1,1
847,02398,JUVIGNY,49.44857677,3.31533781107,2,280.0,0,0,0,0,0,0,0,0,0,0,1,1
848,02399,JUVINCOURT ET DAMARY,49.4468853425,3.89147198339,2,493.0,0,0,0,0,0,1,1,1,0,1,1,1
850,02401,LAIGNY,49.8631466398,3.86133626518,2,220.0,1,1,1,1,1,0,1,1,1,1,1,1
852,02403,LANDIFAY ET BERTAIGNEMONT,49.8255553996,3.60399989958,2,292.0,0,0,0,0,0,0,0,0,0,0,0,0
854,02405,LANDOUZY LA VILLE,49.8562890185,4.05045506584,2,526.0,0,1,1,1,1,0,1,1,1,1,1,1
857,02408,LAON,49.5679724897,3.62089561902,2,25986.0,1,1,1,1,1,1,1,1,1,1,1,1
858,02409,LAPPION,49.5898015281,3.96457967258,2,295.0,0,0,0,0,0,0,1,0,0,0,0,0
859,02410,LARGNY SUR AUTOMNE,49.2610748419,3.05411123113,2,234.0,0,1,1,1,1,1,-1,-1,-1,1,-1,-1
860,02411,LATILLY,49.1538863119,3.31218468893,2,213.0,0,0,1,1,1,0,1,1,1,1,1,1
862,02413,LAVAL EN LAONNOIS,49.5029905064,3.58758242212,2,255.0,0,1,1,1,1,1,1,1,1,1,1,1
863,02414,LAVAQUERESSE,49.9465387553,3.7166420191,2,212.0,0,0,0,0,0,0,1,0,0,1,1,1
865,02416,LEME,49.843926232,3.7576717994,2,447.0,0,0,0,0,0,0,0,0,1,1,1,1
867,02418,LERZY,49.9499258495,3.88135093149,2,219.0,0,0,0,0,0,0,1,1,1,1,1,1
868,02419,LESCHELLE,49.9605709227,3.77740709683,2,296.0,0,0,0,0,0,0,0,0,0,1,1,1
869,02420,LESDINS,49.9043632178,3.31462117869,2,854.0,0,1,0,0,0,1,1,1,1,1,1,1
871,02422,LESQUIELLES ST GERMAIN,49.931687068,3.62808644318,2,859.0,1,1,1,0,1,1,1,1,1,1,1,1
872,02423,LEUILLY SOUS COUCY,49.4734455044,3.35288205414,2,413.0,0,0,0,0,0,0,0,0,0,0,1,1
875,02426,LEVERGIES,49.9345380686,3.31185579217,2,587.0,0,0,0,0,0,0,1,1,1,1,1,1
879,02430,LIESSE NOTRE DAME,49.6108544067,3.81711786834,2,1275.0,0,0,0,1,1,1,1,1,1,1,1,1
880,02431,LIEZ,49.6923509874,3.30017368966,2,435.0,1,0,1,0,1,1,1,1,1,1,1,1
882,02433,LISLET,49.6757265054,4.02084295692,2,239.0,0,0,0,0,0,0,1,1,1,1,1,1
883,02434,LIZY,49.5119505422,3.47941613566,2,269.0,1,1,1,1,1,1,1,1,1,1,1,1
885,02438,LONGPONT,49.2843362442,3.22069360555,2,294.0,0,0,0,0,0,0,0,0,0,0,0,0
886,02439,LES SEPTVALLONS,49.3603355862,3.65567844397,2,485.0,0,0,0,0,0,1,0,0,1,1,1,1
887,02439,LES SEPTVALLONS,49.3603355862,3.65567844397,2,485.0,0,0,0,0,0,1,0,0,1,1,1,1
888,02439,LES SEPTVALLONS,49.3603355862,3.65567844397,2,485.0,0,0,0,0,0,1,0,0,1,1,1,1
889,02439,LES SEPTVALLONS,49.3603355862,3.65567844397,2,485.0,0,0,0,0,0,1,0,0,1,1,1,1
890,02439,LES SEPTVALLONS,49.3603355862,3.65567844397,2,485.0,0,0,0,0,0,1,0,0,1,1,1,1
891,02439,LES SEPTVALLONS,49.3603355862,3.65567844397,2,485.0,0,0,0,0,0,1,0,0,1,1,1,1
892,02439,LES SEPTVALLONS,49.3603355862,3.65567844397,2,485.0,0,0,0,0,0,1,0,0,1,1,1,1
893,02439,LES SEPTVALLONS,49.3603355862,3.65567844397,2,485.0,0,0,0,0,0,1,0,0,1,1,1,1
895,02441,LOUATRE,49.2527947078,3.24153629897,2,213.0,0,0,0,0,0,0,0,0,0,0,0,0
899,02445,LUZOIR,49.9271348987,3.96025090337,2,290.0,1,0,1,1,1,1,1,1,1,1,1,1
904,02450,MACQUIGNY,49.8732387452,3.57070489565,2,374.0,0,1,0,0,1,0,1,1,1,1,1,1
906,02452,MAISSEMY,49.8929443672,3.1890371838,2,245.0,0,0,0,0,0,1,1,1,1,1,1,1
907,02453,MAIZY,49.377259904,3.71616526094,2,425.0,0,0,0,0,0,1,1,1,1,1,1,1
908,02454,LA MALMAISON,49.5165178767,4.00048717912,2,411.0,0,0,0,0,0,0,0,0,0,0,0,0
910,02456,MANICAMP,49.5650654162,3.17962639988,2,309.0,0,0,0,0,0,0,1,1,1,1,0,1
911,02457,MARCHAIS,49.5850707567,3.82150148626,2,379.0,0,0,0,1,1,1,1,1,1,1,1,1
912,02458,DHUYS ET MORIN EN BRIE,48.8935786183,3.49268121283,2,275.0,0,0,0,0,0,1,1,1,1,1,0,1
913,02458,DHUYS ET MORIN EN BRIE,48.8935786183,3.49268121283,2,275.0,0,0,0,0,0,1,1,1,1,1,0,1
914,02458,DHUYS ET MORIN EN BRIE,48.8935786183,3.49268121283,2,275.0,0,0,0,0,0,1,1,1,1,1,0,1
915,02458,DHUYS ET MORIN EN BRIE,48.8935786183,3.49268121283,2,275.0,0,0,0,0,0,1,1,1,1,1,0,1
917,02460,MARCY SOUS MARLE,49.7457495163,3.73453881149,2,220.0,0,0,0,0,0,0,1,1,1,1,1,1
918,02461,MAREST DAMPCOURT,49.59443854,3.14627124688,2,336.0,0,0,0,0,0,1,-1,-1,1,-1,-1,-1
919,02462,MAREUIL EN DOLE,49.2424552782,3.56114326739,2,248.0,0,0,0,0,0,0,1,0,0,0,0,0
921,02464,MARGIVAL,49.432719029,3.40572977303,2,320.0,0,1,0,0,0,0,0,0,0,0,1,1
922,02465,MARIGNY EN ORXOIS,49.0526386182,3.22281001734,2,462.0,0,0,1,0,0,1,-1,-1,-1,-1,1,1
925,02468,MARLE,49.7451393478,3.7652054501,2,2351.0,0,0,0,1,1,1,1,1,1,1,1,1
926,02469,MARLY GOMONT,49.8913737841,3.7849871912,2,414.0,1,1,1,1,1,1,1,1,1,1,1,1
927,02470,MARTIGNY,49.866582249,4.13443052228,2,452.0,0,0,0,0,0,0,1,0,1,1,1,1
929,02472,MAUREGNY EN HAYE,49.5406230877,3.79762834314,2,434.0,1,1,1,0,1,1,1,1,1,1,1,1
931,02474,MENNESSIS,49.6918385873,3.27543313236,2,419.0,1,0,0,0,1,1,1,1,1,1,1,1
932,02475,MENNEVILLE,49.4303233528,4.00555747176,2,408.0,1,1,1,1,1,1,1,1,1,1,1,1
933,02476,MENNEVRET,49.9919704555,3.55884133428,2,664.0,0,0,0,0,0,0,0,0,0,0,1,1
934,02477,MERCIN ET VAUX,49.3705627456,3.27070140635,2,940.0,1,1,1,1,1,1,1,1,1,1,1,1
935,02478,MERLIEUX ET FOUQUEROLLES,49.5137172169,3.49932983224,2,273.0,1,0,1,1,1,1,1,1,1,1,1,1
936,02480,MESBRECOURT RICHECOURT,49.710385665,3.53739733076,2,298.0,0,0,0,0,0,0,0,0,0,0,0,0
937,02481,MESNIL ST LAURENT,49.8290188644,3.36454012617,2,450.0,1,1,1,0,1,1,1,1,1,1,1,1
939,02483,MEZIERES SUR OISE,49.7918999939,3.38740833653,2,542.0,0,0,0,0,0,0,1,1,1,1,1,1
940,02484,MEZY MOULINS,49.0630074888,3.5122782761,2,523.0,0,0,1,1,1,1,1,1,1,1,1,1
943,02487,MISSY SUR AISNE,49.3855898418,3.43829672684,2,684.0,1,1,1,1,1,1,1,1,1,1,1,1
945,02489,MOLINCHART,49.5624802928,3.53979641476,2,317.0,1,1,1,1,1,1,1,1,1,1,1,1
947,02491,MONCEAU LE NEUF ET FAUCOUZY,49.7845792788,3.63110860935,2,345.0,0,0,0,0,0,0,0,0,0,0,0,0
948,02492,MONCEAU LES LEUPS,49.6617789272,3.48549133203,2,473.0,0,0,0,0,0,0,1,1,1,1,1,1
949,02493,MONCEAU LE WAAST,49.6217435488,3.71656668597,2,243.0,0,0,0,0,0,0,0,0,0,0,1,1
951,02495,MONDREPUIS,49.9637441269,4.05128113518,2,1008.0,0,1,0,1,1,1,-1,-1,-1,-1,-1,-1
953,02497,MONS EN LAONNOIS,49.5379451828,3.55478457954,2,1149.0,0,1,1,1,1,1,1,1,1,1,1,1
954,02498,MONTAIGU,49.5531328831,3.84439779259,2,732.0,0,0,0,0,0,1,1,1,1,1,1,1
956,02500,MONTBREHAIN,49.9642449609,3.35609147368,2,807.0,0,0,0,0,0,1,1,1,1,1,1,1
958,02502,MONTCORNET,49.6890129328,4.02915061151,2,1543.0,0,0,0,0,0,1,1,1,1,1,1,1
959,02503,MONT D ORIGNY,49.8514997521,3.52673568406,2,860.0,0,1,1,0,1,0,1,1,1,1,1,1
960,02504,MONTESCOURT LIZEROLLES,49.7360396205,3.26188923395,2,1684.0,0,0,1,1,1,1,1,1,1,1,1,1
967,02511,MONTIGNY EN ARROUAISE,49.9120067618,3.48306674241,2,300.0,0,0,0,0,0,0,1,0,0,1,0,0
968,02512,MONTIGNY L ALLIER,49.1221418457,3.10744372815,2,272.0,1,1,0,1,1,1,-1,-1,-1,-1,-1,-1
970,02514,MONTIGNY LENGRAIN,49.3726900463,3.09924630011,2,668.0,0,1,0,1,1,1,-1,-1,-1,1,-1,1
973,02517,MONTIGNY SUR CRECY,49.7149248587,3.58368023998,2,309.0,0,0,0,0,0,0,1,1,1,1,0,0
974,02518,MONTLEVON,48.9627005485,3.51543798042,2,248.0,0,0,0,0,0,0,0,0,0,0,0,1
976,02520,MONT NOTRE DAME,49.2921467742,3.5821661713,2,677.0,0,0,0,0,0,1,1,1,1,1,1,1
977,02521,MONTREUIL AUX LIONS,49.0264607134,3.19454438663,2,1396.0,0,1,1,0,0,0,-1,1,1,-1,1,-1
980,02524,MONT ST PERE,49.0816980947,3.47715449247,2,686.0,0,0,1,0,0,0,1,1,1,1,1,1
981,02525,MORCOURT,49.8759595448,3.33400206098,2,596.0,1,1,1,1,1,1,1,1,1,1,1,1
983,02527,MORSAIN,49.4616807631,3.19122405616,2,426.0,0,0,0,0,0,0,0,0,1,1,1,1
984,02528,MORTEFONTAINE,49.3362768244,3.08053479514,2,239.0,0,0,0,1,1,1,-1,-1,-1,-1,-1,-1
985,02529,MORTIERS,49.6934508264,3.66411841593,2,207.0,0,0,0,1,1,0,1,1,1,1,1,1
988,02532,MOY DE L AISNE,49.750274961,3.35100553228,2,993.0,0,0,0,1,1,1,1,1,1,1,1,1
995,02539,NAUROY,49.9508154668,3.25861980976,2,691.0,0,0,0,0,0,0,1,1,1,1,1,1
996,02540,NESLES LA MONTAGNE,48.9997837313,3.44587892818,2,1210.0,0,1,1,0,0,1,1,1,1,1,1,1
997,02541,NEUFCHATEL SUR AISNE,49.4367296826,4.0236471269,2,416.0,1,1,1,1,0,1,1,-1,1,1,1,1
999,02543,NEUILLY ST FRONT,49.1626366671,3.26436269893,2,2175.0,0,0,1,1,1,1,1,1,1,1,1,1
1000,02544,NEUVE MAISON,49.9286429779,4.04086730255,2,616.0,1,1,1,1,1,1,1,1,1,1,1,1
1004,02548,LA NEUVILLE LES DORENGT,49.983064353,3.68565926181,2,385.0,0,0,0,1,1,1,1,1,1,1,1,1
1005,02549,NEUVILLE ST AMAND,49.8206477091,3.33360991741,2,893.0,1,1,1,1,1,1,1,1,1,1,1,1
1009,02553,NIZY LE COMTE,49.574361853,4.03064818206,2,257.0,0,0,0,0,0,0,0,0,0,0,0,0
1010,02554,NOGENTEL,49.0140758623,3.40340404208,2,1019.0,1,1,1,1,1,1,1,1,1,1,1,1
1011,02555,NOGENT L ARTAUD,48.9426222247,3.332802902,2,2137.0,1,1,1,1,1,1,1,1,1,1,1,1
1014,02558,LE NOUVION EN THIERACHE,50.0086867152,3.80929288198,2,2807.0,0,0,0,0,0,1,1,1,1,1,1,1
1015,02559,NOUVION ET CATILLON,49.7075667391,3.49359729343,2,535.0,0,0,0,0,0,0,1,0,0,1,0,0
1016,02559,NOUVION ET CATILLON,49.7075667391,3.49359729343,2,535.0,0,0,0,0,0,0,1,0,0,1,0,0
1017,02560,NOUVION LE COMTE,49.7079830783,3.46084868911,2,273.0,0,0,0,0,0,0,1,1,1,1,1,1
1019,02562,NOUVRON VINGRE,49.4333492,3.18803179842,2,226.0,0,0,0,0,0,0,0,0,1,0,0,1
1021,02564,NOYANT ET ACONIN,49.3319620657,3.33416303776,2,476.0,1,1,1,1,1,1,1,1,1,1,1,1
1022,02565,OEUILLY,49.3928856944,3.68222741301,2,277.0,0,0,0,0,0,1,1,1,1,1,1,1
1023,02566,OGNES,49.6136864694,3.19142372904,2,1174.0,1,1,1,1,1,1,1,1,1,1,1,1
1024,02567,OHIS,49.9184307239,4.01170912127,2,307.0,0,1,1,1,1,1,1,1,1,1,1,1
1026,02569,OISY,50.0229089259,3.65273893683,2,428.0,0,0,0,0,0,1,-1,-1,1,1,1,1
1028,02571,OMISSY,49.8804267246,3.29788036707,2,807.0,1,1,1,1,1,1,1,1,1,1,1,1
1029,02572,ORAINVILLE,49.3759679828,4.01565856496,2,492.0,0,0,0,0,0,0,-1,-1,-1,-1,-1,-1
1031,02574,ORIGNY EN THIERACHE,49.8861904623,4.01101149757,2,1548.0,0,1,1,1,1,1,1,1,1,1,1,1
1032,02575,ORIGNY STE BENOITE,49.8268502674,3.52909324665,2,1726.0,0,1,1,1,1,1,1,1,1,1,1,1
1033,02576,OSLY COURTIL,49.3995301311,3.23736511582,2,297.0,0,0,0,0,0,1,1,1,1,1,1,1
1037,02580,OULCHY LE CHATEAU,49.2070701806,3.38202413773,2,833.0,0,0,0,0,0,1,1,1,1,1,1,1
1038,02580,OULCHY LE CHATEAU,49.2070701806,3.38202413773,2,833.0,0,0,0,0,0,1,1,1,1,1,1,1
1039,02581,PAARS,49.3302779346,3.60267922049,2,284.0,0,0,0,0,0,1,1,1,1,1,1,1
1043,02585,PARCY ET TIGNY,49.2703704352,3.32906709704,2,249.0,0,0,0,0,0,0,0,0,0,1,1,1
1045,02587,PARFONDRU,49.5385213412,3.70351915315,2,346.0,1,1,1,1,1,1,1,1,1,1,1,1
1047,02589,PARGNY FILAIN,49.4629055692,3.53929108659,2,234.0,0,0,0,0,1,0,1,1,1,1,1,1
1050,02592,PARPEVILLE,49.7943758027,3.56422835389,2,241.0,0,0,0,0,0,0,0,0,0,0,0,0
1051,02593,PASLY,49.4022800131,3.29799527999,2,1021.0,1,1,1,0,1,1,1,1,1,1,1,1
1054,02596,PAVANT,48.9528924605,3.28390382889,2,799.0,1,1,1,1,1,1,-1,-1,-1,-1,-1,1
1055,02598,PERNANT,49.3756522114,3.23031459047,2,708.0,0,0,0,0,0,1,1,1,1,1,1,1
1056,02599,PIERREMANDE,49.566550412,3.25836777343,2,276.0,0,0,0,0,0,1,1,1,1,1,1,1
1057,02600,PIERREPONT,49.6482784601,3.78777546723,2,394.0,0,0,0,0,0,0,1,0,0,0,1,1
1059,02602,PINON,49.488480349,3.46156583024,2,1811.0,1,1,1,1,1,1,1,1,1,1,1,1
1064,02608,PLOMION,49.8188816623,4.01999597737,2,477.0,0,0,0,0,0,0,0,0,1,1,1,1
1066,02610,POMMIERS,49.3921873782,3.27884937169,2,637.0,1,1,1,1,1,1,1,1,1,1,1,1
1068,02613,PONTAVERT,49.4176198194,3.82051815377,2,596.0,0,0,0,0,0,1,1,1,1,1,1,1
1069,02614,PONTRU,49.921599489,3.20120191987,2,286.0,0,0,0,0,0,0,-1,0,1,1,1,1
1070,02615,PONTRUET,49.9148506173,3.2294738031,2,339.0,0,0,0,0,0,1,1,0,1,1,1,1
1072,02617,POUILLY SUR SERRE,49.6778615755,3.58559308314,2,524.0,0,0,0,0,1,0,1,1,1,1,1,1
1073,02618,PREMONT,50.0143067533,3.39725258008,2,757.0,0,0,0,0,1,1,-1,1,-1,1,1,1
1074,02619,PREMONTRE,49.5493580112,3.4177638358,2,769.0,0,0,0,0,0,0,1,0,0,0,1,1
1075,02620,PRESLES ET BOVES,49.3900726835,3.54013980029,2,356.0,0,0,0,1,1,1,1,1,1,1,1,1
1076,02621,PRESLES ET THIERNY,49.5144603614,3.62483361601,2,383.0,0,1,1,1,1,1,1,1,1,1,1,1
1079,02624,PROISY,49.8906172484,3.75241120947,2,318.0,1,1,1,1,1,1,1,1,1,1,1,1
1081,02626,PROUVAIS,49.4760906978,3.97215349857,2,379.0,0,0,0,0,0,0,1,0,0,0,1,1
1083,02628,PUISEUX EN RETZ,49.2925861417,3.13448879571,2,217.0,0,0,0,0,0,0,0,1,1,1,1,1
1084,02629,PUISIEUX ET CLANLIEU,49.8472444334,3.66367663689,2,296.0,0,0,0,0,0,0,0,0,0,1,1,0
1085,02631,QUIERZY,49.5641090409,3.14613795931,2,459.0,0,0,0,0,0,1,1,-1,-1,-1,-1,1
1090,02636,REGNY,49.8343070304,3.42061400129,2,209.0,0,0,0,0,0,1,1,1,1,1,1,1
1091,02637,REMAUCOURT,49.8954350618,3.34948034131,2,319.0,0,0,0,0,1,1,1,1,1,1,1,1
1092,02638,REMIES,49.6793679757,3.52478064261,2,239.0,0,0,0,0,0,0,0,0,0,0,0,0
1093,02639,REMIGNY,49.7141625709,3.29518707017,2,390.0,0,0,1,1,1,0,1,1,1,1,1,1
1097,02643,RESSONS LE LONG,49.3881779495,3.1411755288,2,755.0,0,0,0,0,0,1,1,1,-1,1,1,1
1098,02644,RETHEUIL,49.318909114,3.00378064988,2,387.0,1,1,0,1,1,1,-1,-1,-1,-1,-1,-1
1099,02645,REUILLY SAUVIGNY,49.0506024106,3.56448771259,2,229.0,0,0,1,1,1,1,1,1,1,1,1,1
1101,02648,RIBEMONT,49.7885436581,3.47018526049,2,1984.0,0,0,0,1,1,1,1,1,1,1,1,1
1102,02649,ROCOURT ST MARTIN,49.1453872803,3.3891401292,2,321.0,1,1,1,1,1,0,1,1,1,1,1,1
1103,02650,ROCQUIGNY,50.0193341952,3.97342250903,2,393.0,0,0,0,0,0,0,-1,-1,-1,-1,-1,-1
1106,02653,ROMENY SUR MARNE,48.9852721229,3.3344209065,2,487.0,1,1,1,1,1,1,1,1,1,1,1,1
1109,02656,ROUCY,49.3745878159,3.82024502091,2,404.0,0,0,0,0,0,0,1,0,1,1,1,1
1110,02657,ROUGERIES,49.8056045885,3.78694787331,2,228.0,0,0,0,0,0,0,0,0,0,1,1,1
1111,02658,ROUPY,49.8120572031,3.18195896491,2,241.0,0,0,0,1,1,1,1,1,1,1,1,1
1112,02659,ROUVROY,49.8579447094,3.33298681219,2,439.0,1,1,1,1,1,1,1,1,1,1,1,1
1115,02662,ROZET ST ALBIN,49.1982180685,3.29738760461,2,286.0,0,0,1,0,0,0,1,1,1,1,1,1
1116,02663,ROZIERES SUR CRISE,49.3227443516,3.37101592804,2,231.0,1,1,1,1,1,1,1,1,1,1,1,1
1118,02665,GRAND ROZOY,49.2423109815,3.38147360131,2,293.0,0,0,0,0,0,0,0,0,0,1,1,1
1119,02666,ROZOY SUR SERRE,49.706447861,4.13134010865,2,1025.0,0,0,0,0,0,0,0,0,1,1,1,1
1120,02667,SACONIN ET BREUIL,49.3506902358,3.24672146323,2,221.0,0,0,0,0,0,0,1,1,1,1,1,1
1121,02668,SAINS RICHAUMONT,49.8276068685,3.70490926861,2,1005.0,0,0,0,0,0,0,0,0,1,1,1,1
1123,02671,ST AUBIN,49.5099540337,3.18837580055,2,322.0,0,0,0,0,0,1,1,1,1,1,1,1
1124,02672,ST BANDRY,49.3638994868,3.14949009826,2,260.0,0,0,0,0,0,1,1,1,1,1,1,1
1125,02673,ST CHRISTOPHE A BERRY,49.4290499245,3.12949472733,2,426.0,0,0,0,0,0,1,-1,-1,-1,-1,-1,-1
1128,02676,ST ERME OUTRE ET RAMECOURT,49.5182833727,3.86386406835,2,1832.0,0,0,0,0,0,1,1,1,1,1,1,1
1129,02677,ST EUGENE,49.0155450781,3.51721331428,2,238.0,0,0,1,1,1,1,1,1,1,1,1,1
1132,02680,ST GOBAIN,49.5953887213,3.39411143672,2,2337.0,0,0,0,0,0,1,1,1,1,1,1,1
1133,02681,ST GOBERT,49.8037605968,3.83219152047,2,309.0,0,0,0,0,0,0,0,0,0,0,1,1
1136,02684,ST MICHEL,49.9259700696,4.15288229364,2,3535.0,0,1,0,0,0,1,1,1,1,1,1,1
1138,02686,ST PAUL AUX BOIS,49.5443121228,3.20260437248,2,395.0,0,0,0,0,0,0,0,1,1,1,1,1
1139,02687,ST PIERRE AIGLE,49.3121621719,3.19602649155,2,352.0,0,0,0,0,0,0,0,1,1,1,1,1
1143,02691,ST QUENTIN,49.8472336321,3.27769499462,2,55978.0,1,1,1,1,1,1,1,1,1,1,1,1
1144,02693,ST REMY BLANZY,49.2457583592,3.30773725902,2,234.0,0,0,0,0,0,0,0,0,0,0,1,0
1145,02694,ST SIMON,49.7458877556,3.18260412516,2,621.0,0,0,0,0,0,0,1,1,1,1,1,1
1148,02697,SAMOUSSY,49.5868706589,3.74329094453,2,338.0,0,0,0,0,1,1,1,1,1,1,1,1
1150,02699,SAPONAY,49.2143831516,3.48437985358,2,259.0,1,1,1,0,1,1,1,1,1,1,1,1
1151,02701,SAULCHERY,48.9756405479,3.31260850509,2,658.0,1,1,1,1,1,1,1,1,1,1,1,1
1152,02702,SAVY,49.8343646886,3.19764190963,2,614.0,0,0,0,1,1,1,1,1,1,1,1,1
1153,02703,SEBONCOURT,49.9626066437,3.49425998163,2,1079.0,0,0,0,1,1,0,1,1,1,1,1,1
1154,02704,SELENS,49.4943706034,3.20586043656,2,238.0,0,0,0,0,0,0,1,1,1,1,1,1
1155,02705,LA SELVE,49.5698786702,3.99524867672,2,205.0,0,0,0,0,0,0,0,0,0,0,0,0
1156,02706,SEPTMONTS,49.3384597812,3.36210276584,2,580.0,1,1,1,1,1,1,1,1,1,1,1,1
1158,02708,SEQUEHART,49.9320260511,3.34096519199,2,227.0,0,0,0,0,0,0,1,1,1,1,1,1
1159,02709,SERAIN,50.0246912807,3.36304349229,2,381.0,0,0,0,0,1,1,-1,1,-1,1,1,-1
1160,02710,SERAUCOURT LE GRAND,49.780519235,3.21829749297,2,789.0,0,0,0,0,0,0,1,0,1,1,1,1
1161,02711,SERCHES,49.3320664098,3.44951495068,2,313.0,0,1,0,0,0,0,1,0,1,0,1,1
1163,02713,SERINGES ET NESLES,49.2116537607,3.55885016448,2,296.0,1,1,1,0,1,1,1,1,1,1,1,1
1164,02714,SERMOISE,49.3724753933,3.44697180612,2,319.0,1,1,1,1,1,1,1,1,1,1,1,1
1166,02716,SERVAIS,49.6194083182,3.34197325752,2,282.0,1,1,1,1,1,1,1,1,1,1,1,1
1167,02717,SERY LES MEZIERES,49.7647253763,3.42321314919,2,635.0,0,0,0,1,1,1,1,1,1,1,1,1
1169,02719,SINCENY,49.5910938147,3.26877002882,2,2152.0,1,1,1,1,1,1,1,1,1,1,1,1
1170,02720,SISSONNE,49.5639648451,3.92032139579,2,2072.0,0,0,0,0,0,1,1,1,1,1,1,1
1171,02721,SISSY,49.8106555228,3.42084647603,2,484.0,0,0,0,1,1,1,1,1,1,1,1,1
1172,02722,SOISSONS,49.3791742979,3.32471758491,2,28646.0,1,0,1,1,1,1,1,1,1,1,1,1
1177,02727,SONS ET RONCHERES,49.7689463972,3.66761782458,2,234.0,0,0,0,0,0,0,0,0,0,0,0,0
1178,02728,SORBAIS,49.9137614487,3.88302482521,2,272.0,1,1,1,0,1,1,1,1,1,1,1,1
1180,02730,SOUPIR,49.4106784751,3.59989736789,2,305.0,0,0,0,0,0,1,1,0,0,1,0,1
1183,02733,SUZY,49.556451044,3.46091896853,2,307.0,0,0,0,0,0,0,0,0,0,0,1,1
1184,02734,TAILLEFONTAINE,49.3099328056,3.04962539056,2,271.0,0,0,0,1,1,0,-1,-1,-1,-1,-1,-1
1187,02737,TAVAUX ET PONTSERICOURT,49.7296446334,3.9190519179,2,601.0,0,0,0,0,0,0,0,0,0,0,0,0
1188,02738,TERGNIER,49.6572646109,3.29924077478,2,14139.0,1,1,1,1,1,1,1,1,1,1,1,1
1189,02738,TERGNIER,49.6572646109,3.29924077478,2,14139.0,1,1,1,1,1,1,1,1,1,1,1,1
1190,02738,TERGNIER,49.6572646109,3.29924077478,2,14139.0,1,1,1,1,1,1,1,1,1,1,1,1
1191,02738,TERGNIER,49.6572646109,3.29924077478,2,14139.0,1,1,1,1,1,1,1,1,1,1,1,1
1192,02739,TERNY SORNY,49.4472096599,3.36942791187,2,304.0,0,0,0,0,0,0,0,0,0,0,1,1
1193,02740,THENAILLES,49.8149576709,3.95232479493,2,255.0,0,1,1,1,1,0,1,1,1,1,1,1
1194,02741,THENELLES,49.8314948078,3.45894075748,2,568.0,0,1,1,1,1,1,1,1,1,1,1,1
1199,02746,TRAVECY,49.6858217171,3.34481845935,2,643.0,1,1,1,0,1,1,1,1,1,1,1,1
1201,02748,TRELOU SUR MARNE,49.0916773783,3.60157906913,2,985.0,0,0,1,0,1,1,1,1,-1,1,-1,1
1202,02749,TROESNES,49.1981484588,3.1768274022,2,236.0,0,1,1,0,0,0,1,1,1,1,0,1
1203,02750,TROSLY LOIRE,49.5175794818,3.23167717474,2,593.0,0,0,0,0,0,0,1,0,1,1,1,1
1205,02752,TUGNY ET PONT,49.7704032986,3.16072597634,2,281.0,0,0,0,0,0,0,0,0,1,1,1,1
1206,02753,TUPIGNY,49.9705608416,3.59399622464,2,364.0,0,0,0,0,0,0,0,0,1,1,1,1
1208,02755,URCEL,49.4940437763,3.55713233917,2,549.0,0,1,1,1,1,1,1,1,1,1,1,1
1209,02756,URVILLERS,49.7897507931,3.31629966887,2,610.0,0,1,0,1,1,0,1,1,1,1,1,1
1210,02757,VADENCOURT,49.9229771613,3.57386118846,2,638.0,0,0,0,0,1,1,1,1,1,1,1,1
1211,02757,VADENCOURT,49.9229771613,3.57386118846,2,638.0,0,0,0,0,1,1,1,1,1,1,1,1
1212,02758,VAILLY SUR AISNE,49.4108623288,3.52012059802,2,2081.0,0,0,0,1,1,1,1,1,1,1,1,1
1213,02759,LA VALLEE AU BLE,49.8571725081,3.794382858,2,347.0,1,1,1,1,1,0,1,1,1,1,1,1
1215,02761,VARISCOURT,49.4148891865,3.98066282251,2,214.0,1,1,1,1,1,1,1,1,1,1,1,1
1217,02763,VASSENY,49.3556275252,3.48910249175,2,212.0,0,1,0,0,0,0,1,1,1,1,1,1
1219,02765,VAUCELLES ET BEFFECOURT,49.5206900038,3.55877460724,2,210.0,0,1,1,1,1,1,1,1,1,1,1,1
1220,02766,VAUDESSON,49.4750001736,3.48695975523,2,260.0,1,1,1,1,1,0,1,1,1,1,1,1
1221,02767,VAUXREZIS,49.4205077489,3.27709335238,2,334.0,0,0,0,0,0,0,0,0,1,1,1,1
1222,02768,VAUXAILLON,49.4770651148,3.40823751638,2,490.0,0,1,1,1,0,0,1,1,1,1,1,1
1223,02769,VAUX ANDIGNY,50.0111472485,3.52295400201,2,959.0,0,0,0,0,0,1,-1,-1,1,-1,1,1
1224,02770,VAUXBUIN,49.357283338,3.29549391938,2,766.0,1,1,1,1,1,1,1,1,1,1,1,1
1228,02775,VENDEUIL,49.719870808,3.3449169008,2,918.0,0,0,0,1,1,0,1,1,1,1,1,1
1229,02776,VENDHUILE,50.0120254621,3.20888614063,2,531.0,0,0,0,0,0,0,-1,-1,-1,-1,-1,-1
1232,02779,VENEROLLES,49.9903433031,3.63008652624,2,216.0,0,0,0,1,1,1,1,1,1,1,1,1
1233,02780,VENIZEL,49.3676425771,3.39248543249,2,1356.0,1,1,1,1,1,1,1,1,1,1,1,1
1234,02781,VERDILLY,49.0744862502,3.42189905232,2,436.0,1,0,1,0,1,1,1,1,1,1,1,1
1235,02782,LE VERGUIER,49.9231401902,3.16936385423,2,224.0,0,0,0,0,0,0,-1,1,1,1,1,-1
1238,02785,VERMAND,49.8839098456,3.15146515668,2,1032.0,0,0,0,0,0,1,-1,-1,1,1,1,-1
1240,02787,VERNEUIL SUR SERRE,49.6436030037,3.67943401416,2,271.0,0,0,0,0,0,0,0,0,0,0,0,1
1241,02788,VERSIGNY,49.658136733,3.44270966266,2,467.0,0,1,1,0,0,0,1,1,1,1,1,1
1242,02789,VERVINS,49.8351798708,3.92522602825,2,2666.0,0,1,1,1,1,1,1,1,1,1,1,1
1243,02790,VESLES ET CAUMONT,49.6750932677,3.78950879053,2,234.0,0,0,0,0,0,0,0,0,0,0,1,1
1244,02791,VESLUD,49.5387490108,3.73067663493,2,257.0,1,1,1,1,1,1,1,1,1,1,1,1
1248,02795,VIC SUR AISNE,49.410747629,3.10912550549,2,1760.0,0,1,0,0,1,1,-1,-1,-1,1,-1,-1
1251,02798,VIELS MAISONS,48.9070425737,3.39571892839,2,1052.0,0,0,0,0,0,0,1,0,1,0,0,1
1252,02799,VIERZY,49.2868570454,3.27759490696,2,440.0,0,0,0,0,0,0,0,0,0,0,0,0
1253,02800,VIFFORT,48.9576165601,3.46972594402,2,333.0,0,0,0,0,0,0,0,0,0,0,0,1
1254,02801,VIGNEUX HOCQUET,49.7440393657,3.99489165596,2,283.0,0,0,0,0,0,0,0,0,0,0,0,0
1257,02804,VILLEMONTOIRE,49.3000199564,3.32189672243,2,210.0,1,1,1,1,1,0,1,1,1,1,1,1
1258,02805,VILLENEUVE ST GERMAIN,49.3789013616,3.36175815803,2,2438.0,1,1,1,1,1,1,1,1,1,1,1,1
1259,02806,VILLENEUVE SUR FERE,49.1706936984,3.47593842959,2,286.0,1,1,1,1,1,1,1,1,1,1,1,1
1260,02807,VILLEQUIER AUMONT,49.6606240148,3.19834244186,2,631.0,0,0,0,0,0,0,0,0,0,0,0,0
1261,02808,VILLERET,49.9494418046,3.18749892652,2,314.0,0,0,0,0,0,0,-1,-1,-1,1,-1,-1
1263,02810,VILLERS COTTERETS,49.2392000574,3.09612191097,2,10317.0,0,1,1,1,1,1,1,1,1,1,1,1
1264,02810,VILLERS COTTERETS,49.2392000574,3.09612191097,2,10317.0,0,1,1,1,1,1,1,1,1,1,1,1
1265,02812,VILLERS HELON,49.2649355463,3.26786134731,2,222.0,0,0,0,0,0,0,0,0,0,0,0,0
1266,02813,VILLERS LE SEC,49.7711456702,3.50490696746,2,277.0,0,0,0,1,1,0,1,1,1,1,1,1
1268,02815,VILLERS ST CHRISTOPHE,49.7796914155,3.09099897496,2,472.0,1,1,0,0,0,0,-1,-1,1,1,1,1
1269,02816,VILLERS SUR FERE,49.1715150184,3.53152683586,2,486.0,1,1,1,1,1,0,1,1,1,1,1,1
1271,02818,VILLIERS ST DENIS,48.9977206046,3.26104064101,2,1051.0,1,1,1,1,1,1,-1,-1,1,-1,1,1
1273,02820,VIRY NOUREUIL,49.6385456387,3.24823591959,2,1829.0,1,1,1,1,1,1,1,1,1,1,1,1
1274,02821,VIVAISE,49.6228688465,3.56431943267,2,768.0,1,0,1,0,0,1,1,1,1,1,1,1
1275,02822,VIVIERES,49.3051885401,3.09196075945,2,400.0,0,0,0,0,0,0,1,0,0,0,0,0
1277,02824,VORGES,49.5175796033,3.65105369026,2,378.0,0,1,1,1,1,1,1,1,1,1,1,1
1278,02826,VOULPAIX,49.8387507375,3.83266238617,2,405.0,0,0,0,0,0,0,0,0,0,1,1,1
1279,02827,VOYENNE,49.7158793314,3.73841251024,2,288.0,0,0,0,1,1,0,1,1,1,1,1,1
1282,02830,WASSIGNY,50.017642986,3.59944731539,2,973.0,0,0,0,0,0,0,-1,-1,-1,1,1,1
1283,02831,WATIGNY,49.9163639357,4.20040317785,2,369.0,0,0,0,0,0,1,1,1,1,1,1,1
1284,02832,WIEGE FATY,49.8827986391,3.7134240171,2,231.0,1,1,1,1,1,0,1,1,1,1,1,1
1285,02833,WIMY,49.9480535708,3.99735885106,2,468.0,0,0,0,1,1,1,1,1,1,1,1,1
1287,03001,ABREST,46.0955766716,3.45052482175,3,2732.0,1,1,1,1,1,1,1,1,1,1,1,1
1288,03002,AGONGES,46.6180197037,3.14884278466,3,342.0,0,0,0,0,0,0,0,0,0,1,0,1
1289,03003,AINAY LE CHATEAU,46.7155678491,2.72085613518,3,1050.0,0,0,0,0,0,0,-1,-1,-1,-1,-1,-1
1290,03004,ANDELAROCHE,46.2501153137,3.74613192809,3,277.0,0,0,0,0,0,0,0,0,0,1,-1,1
1291,03005,ARCHIGNAT,46.3670864602,2.41001210443,3,353.0,0,0,0,1,0,0,0,0,0,1,0,0
1292,03006,ARFEUILLES,46.1431515084,3.74329110559,3,677.0,0,0,0,0,0,0,0,0,0,1,1,1
1293,03007,ARPHEUILLES ST PRIEST,46.2269459869,2.66485932203,3,343.0,0,0,0,1,1,0,1,1,1,1,1,1
1294,03008,ARRONNES,46.0520854633,3.57527535836,3,361.0,0,0,0,0,0,0,0,0,1,1,1,1
1296,03010,AUDES,46.4607707399,2.55904786289,3,452.0,0,0,0,0,0,0,0,0,0,1,1,1
1297,03011,AUROUER,46.6830651059,3.30496843823,3,370.0,0,0,0,0,0,0,-1,-1,-1,-1,-1,-1
1298,03012,AUTRY ISSARDS,46.5445755503,3.12273629246,3,356.0,0,0,0,0,0,0,1,0,1,1,1,1
1299,03013,AVERMES,46.5983891991,3.3186329397,3,3808.0,0,0,0,0,0,0,1,1,1,1,1,1
1301,03015,BAGNEUX,46.6455268495,3.20422374955,3,311.0,0,0,0,0,0,0,0,0,0,1,1,1
1303,03017,BARRAIS BUSSOLLES,46.2837408507,3.69766013244,3,213.0,0,0,0,0,0,0,0,0,0,0,0,0
1304,03018,BAYET,46.257529442,3.27682744078,3,677.0,0,0,0,0,0,0,0,0,1,1,1,1
1305,03019,BEAULON,46.5874411926,3.66899984776,3,1622.0,0,0,0,0,0,0,1,1,1,1,1,1
1306,03020,BEAUNE D ALLIER,46.272817743,2.8909137183,3,285.0,0,0,0,0,0,0,1,0,1,-1,-1,1
1307,03021,BEGUES,46.1229614254,3.14273582877,3,230.0,0,0,0,0,0,0,1,1,1,1,1,1
1308,03022,BELLENAVES,46.2055132294,3.06605990143,3,1015.0,0,0,0,0,0,0,1,1,1,1,1,1
1309,03023,BELLERIVE SUR ALLIER,46.1214944433,3.39719062136,3,8546.0,1,1,1,1,1,1,1,1,1,1,1,1
1310,03024,BERT,46.3276009713,3.70176788462,3,267.0,0,0,0,0,0,0,0,0,0,0,0,0
1311,03025,BESSAY SUR ALLIER,46.4507552937,3.36752338544,3,1388.0,0,0,0,0,0,0,0,0,1,1,1,1
1312,03026,BESSON,46.4808588768,3.25477616923,3,792.0,0,0,0,0,0,0,0,0,0,1,1,1
1313,03027,BEZENET,46.3323101362,2.84939307523,3,987.0,0,0,0,0,0,1,1,1,1,1,1,1
1314,03028,BILLEZOIS,46.2094826701,3.57688265252,3,392.0,0,0,0,0,0,0,1,1,1,1,1,1
1315,03029,BILLY,46.2315363963,3.43994128747,3,837.0,0,0,1,0,0,1,1,1,1,1,1,1
1316,03030,BIOZAT,46.0812713782,3.28868518632,3,744.0,0,1,1,1,1,1,-1,-1,-1,-1,-1,1
1317,03031,BIZENEUILLE,46.4015746011,2.73071658216,3,283.0,0,0,0,0,0,0,0,0,0,0,0,1
1318,03032,BLOMARD,46.2883371774,2.9626756681,3,207.0,0,0,0,0,0,0,1,1,1,1,1,1
1320,03034,BOUCE,46.3203697694,3.49250482471,3,560.0,0,1,0,0,0,0,0,0,0,1,1,1
1321,03035,LE BOUCHAUD,46.3073055814,3.90705346696,3,208.0,0,0,0,0,0,0,0,0,0,1,1,1
1322,03036,BOURBON L ARCHAMBAULT,46.5836819113,3.05141625983,3,2571.0,0,0,0,0,0,0,1,1,1,1,1,1
1323,03037,BRAIZE,46.658636225,2.65427484498,3,288.0,0,0,0,0,0,0,-1,-1,-1,-1,-1,-1
1324,03038,BRANSAT,46.3291248847,3.21707091921,3,503.0,0,0,0,0,0,0,0,0,1,1,1,1
1325,03039,BRESNAY,46.4335692397,3.24899330539,3,395.0,0,0,0,0,0,0,0,0,0,1,1,1
1326,03040,BRESSOLLES,46.5280643075,3.295748661,3,1026.0,0,1,0,1,1,1,1,1,1,1,1,1
1327,03041,LE BRETHON,46.5841457281,2.71525662654,3,342.0,0,0,0,0,0,0,0,0,0,0,0,0
1328,03042,LE BREUIL,46.1767784559,3.66869091002,3,542.0,0,0,0,0,0,0,0,0,0,1,1,1
1329,03043,BROUT VERNET,46.1961727418,3.28851651471,3,1182.0,0,0,0,0,0,0,0,0,1,1,1,1
1330,03044,BRUGHEAS,46.0728347147,3.3660599245,3,1352.0,0,1,1,1,0,0,-1,-1,-1,-1,-1,-1
1331,03045,BUSSET,46.0568912652,3.51533127883,3,829.0,0,0,0,1,1,0,1,1,1,1,1,1
1332,03046,BUXIERES LES MINES,46.4698341323,2.95493090181,3,1076.0,0,0,0,0,0,0,0,0,1,1,1,1
1333,03047,LA CELLE,46.2278844579,2.77894118647,3,416.0,0,0,0,0,0,0,1,0,1,1,-1,-1
1334,03048,CERILLY,46.6265101815,2.80901857226,3,1351.0,0,0,0,0,0,0,0,0,0,0,0,0
1335,03049,CESSET,46.2993847548,3.19908944342,3,378.0,0,0,0,0,0,0,0,0,1,1,1,1
1337,03051,CHAMBERAT,46.4139665556,2.42552132856,3,311.0,0,0,0,0,0,0,0,0,0,1,1,1
1338,03052,CHAMBLET,46.3283879186,2.71331446339,3,1073.0,1,1,1,1,1,0,1,1,1,1,1,1
1339,03053,CHANTELLE,46.2365355832,3.16046709261,3,1072.0,0,0,0,0,0,0,0,0,1,1,1,1
1340,03054,CHAPEAU,46.4922208672,3.51548779612,3,224.0,0,0,0,0,0,0,0,0,0,0,0,0
1341,03055,LA CHAPELAUDE,46.4276365849,2.50433585569,3,981.0,0,0,0,0,0,0,1,1,1,1,1,1
1342,03056,LA CHAPELLE,46.0889341496,3.5877712092,3,382.0,0,0,0,0,0,0,0,0,1,1,1,1
1343,03057,LA CHAPELLE AUX CHASSES,46.6598285232,3.53021703178,3,213.0,0,0,0,0,0,0,-1,-1,-1,-1,-1,-1
1345,03059,CHAREIL CINTRAT,46.2662583678,3.2297935311,3,348.0,0,0,0,0,0,0,0,0,1,1,1,1
1346,03060,CHARMEIL,46.1598815241,3.39334670689,3,746.0,0,0,0,0,0,1,1,1,1,1,1,1
1347,03061,CHARMES,46.0829571549,3.24639555805,3,369.0,0,1,1,1,1,1,-1,-1,-1,-1,-1,1
1348,03062,CHARROUX,46.1823286094,3.16415034202,3,386.0,0,0,0,0,0,0,1,0,1,1,1,1
1349,03063,CHASSENARD,46.441587471,3.97329862567,3,961.0,0,1,0,1,1,0,-1,-1,-1,-1,-1,-1
1351,03065,CHATEL DE NEUVRE,46.4160449941,3.29822520917,3,549.0,0,0,0,0,0,0,0,0,0,1,1,1
1352,03066,CHATEL MONTAGNE,46.1000720289,3.71657168388,3,412.0,0,0,0,0,0,0,0,0,0,1,1,1
1355,03069,CHATILLON,46.4615377644,3.12807465548,3,322.0,0,0,0,0,0,0,0,1,1,1,1,1
1357,03071,CHAVROCHES,46.353495459,3.59684840219,3,277.0,0,0,0,0,0,0,0,0,1,1,1,1
1358,03072,CHAZEMAIS,46.4871767183,2.51910449046,3,482.0,0,0,0,0,0,0,0,0,0,0,0,0
1359,03073,CHEMILLY,46.4783424537,3.31267906143,3,633.0,0,0,0,0,0,0,0,0,0,1,1,1
1360,03074,CHEVAGNES,46.6082038568,3.56403297131,3,701.0,0,0,0,0,0,0,1,1,1,1,1,1
1362,03076,CHEZY,46.612475752,3.45934804797,3,212.0,0,0,0,0,0,0,1,0,0,1,1,1
1364,03078,CHOUVIGNY,46.1257380444,3.00492464249,3,235.0,0,0,0,0,0,0,1,0,-1,1,-1,-1
1365,03079,CINDRE,46.3230930256,3.55110289744,3,322.0,0,0,0,0,0,0,0,0,0,1,1,1
1366,03080,COGNAT LYONNE,46.1074095478,3.29764762028,3,655.0,0,1,1,1,1,1,1,1,1,1,1,1
1367,03081,COLOMBIER,46.2669829489,2.7937131637,3,316.0,0,1,0,0,0,0,0,0,1,1,1,1
1368,03082,COMMENTRY,46.2787466852,2.74916734673,3,6651.0,1,1,1,1,1,1,1,1,1,1,1,1
1369,03083,CONTIGNY,46.3463711102,3.31483781041,3,611.0,0,0,0,0,0,0,1,0,0,1,1,1
1370,03084,COSNE D ALLIER,46.482962805,2.82323006329,3,2213.0,0,0,0,0,0,0,0,0,1,1,1,1
1371,03085,COULANDON,46.5546535461,3.24541387326,3,702.0,0,0,0,0,0,1,1,1,1,1,1,1
1372,03086,COULANGES,46.4751096526,3.86330653833,3,305.0,0,0,0,0,0,0,-1,-1,-1,-1,-1,-1
1373,03087,COULEUVRE,46.6740683179,2.89685534446,3,581.0,0,0,0,0,0,0,0,0,0,0,0,0
1374,03088,COURCAIS,46.463962183,2.44909172775,3,322.0,0,0,0,0,0,0,0,0,0,0,0,0
1376,03090,COUZON,46.6443750911,3.11347416578,3,298.0,0,0,0,0,0,0,0,0,0,1,0,0
1377,03091,CRECHY,46.2696885601,3.42387984399,3,487.0,0,1,0,0,0,0,1,1,1,1,1,1
1378,03092,CRESSANGES,46.4443092739,3.17072489552,3,670.0,0,0,0,0,0,0,0,1,1,1,1,1
1379,03093,CREUZIER LE NEUF,46.1781234697,3.46274147991,3,1033.0,1,1,1,1,1,1,1,1,1,1,1,1
1380,03094,CREUZIER LE VIEUX,46.1605988745,3.43435089726,3,3333.0,1,0,1,1,1,1,1,1,1,1,1,1
1381,03095,CUSSET,46.1377738304,3.48296708451,3,13370.0,1,1,1,1,1,1,1,1,1,1,1,1
1383,03097,DENEUILLE LES MINES,46.3782924502,2.77557506066,3,347.0,0,0,0,0,0,0,0,0,0,0,1,1
1384,03098,DESERTINES,46.3569236858,2.62735601895,3,4348.0,1,1,1,1,1,1,1,1,1,1,1,1
1385,03099,DEUX CHAISES,46.3749069193,3.04059198306,3,413.0,0,0,0,0,0,0,0,1,1,1,1,1
1386,03100,DIOU,46.5226236257,3.7367345302,3,1502.0,0,0,0,0,0,0,1,-1,-1,1,1,1
1387,03101,DOMERAT,46.3681510176,2.54346219645,3,8990.0,1,1,1,1,1,1,1,1,1,1,1,1
1388,03102,DOMPIERRE SUR BESBRE,46.5305895294,3.67644076991,3,3152.0,0,0,0,0,0,0,1,1,1,1,1,1
1389,03103,LE DONJON,46.3449718057,3.7999456795,3,1080.0,0,0,0,0,0,0,0,0,1,1,1,1
1390,03104,DOYET,46.3433946285,2.79161075003,3,1218.0,0,0,0,0,0,0,1,1,1,1,1,1
1391,03105,DROITURIER,46.2267468451,3.70488868966,3,357.0,0,0,0,0,0,0,0,0,0,1,1,1
1392,03106,DURDAT LAREQUILLE,46.2540040648,2.69686439225,3,1286.0,0,0,0,1,1,1,1,1,1,1,1,1
1393,03107,EBREUIL,46.1176543632,3.07363121151,3,1277.0,0,0,0,0,0,0,-1,-1,-1,1,1,1
1394,03108,ECHASSIERES,46.1956641038,2.94596916837,3,404.0,0,0,0,0,0,0,-1,-1,-1,-1,-1,-1
1395,03109,ESCUROLLES,46.1418285128,3.26795917971,3,729.0,0,0,0,0,0,0,0,0,1,1,1,1
1396,03110,ESPINASSE VOZELLE,46.1292798016,3.33501762138,3,905.0,0,1,1,0,1,1,1,1,1,1,1,1
1397,03111,ESTIVAREILLES,46.4250969781,2.62477435556,3,1124.0,0,0,0,0,0,0,1,1,1,1,1,1
1398,03112,ETROUSSAT,46.2202976466,3.22102195142,3,718.0,0,0,0,0,0,0,0,0,1,1,1,1
1399,03113,FERRIERES SUR SICHON,46.0200050808,3.64850064576,3,560.0,0,0,0,0,0,0,1,0,0,1,1,0
1400,03114,LA FERTE HAUTERIVE,46.396159353,3.3355449517,3,298.0,0,0,0,0,0,0,0,0,0,1,1,1
1401,03115,FLEURIEL,46.2870292399,3.16169451004,3,348.0,0,0,0,0,0,0,0,0,1,1,1,1
1402,03116,FOURILLES,46.2438583922,3.19784046802,3,213.0,0,0,0,0,0,0,0,0,1,1,1,1
1403,03117,FRANCHESSE,46.6436566411,3.03662004358,3,446.0,0,0,0,0,0,0,0,0,0,1,1,1
1404,03118,GANNAT,46.0984192073,3.17790823629,3,5806.0,0,1,1,1,0,1,1,1,1,1,1,1
1405,03119,GANNAY SUR LOIRE,46.7179070524,3.59634650725,3,415.0,0,0,0,0,0,0,-1,-1,-1,-1,-1,-1
1406,03120,GARNAT SUR ENGIEVRE,46.6348166525,3.66797467464,3,718.0,0,0,0,0,0,0,0,-1,1,1,1,1
1407,03121,GENNETINES,46.6296398798,3.40498318638,3,669.0,0,0,0,0,0,0,0,0,0,1,1,1
1408,03122,GIPCY,46.5110673404,3.05138939193,3,224.0,0,0,0,0,0,0,0,0,1,1,1,1
1409,03124,GOUISE,46.4107128153,3.43846428318,3,233.0,0,0,0,0,0,0,0,0,0,0,0,0
1411,03126,HAUTERIVE,46.0773045238,3.43868453629,3,1135.0,0,1,1,1,1,1,1,1,1,1,1,1
1412,03127,HERISSON,46.5199077449,2.71052889853,3,648.0,0,0,0,0,0,0,0,0,1,1,1,1
1413,03128,HURIEL,46.3770986154,2.48198364823,3,2556.0,0,0,0,1,1,1,1,1,1,1,1,1
1414,03129,HYDS,46.273205648,2.8280145759,3,317.0,0,0,0,0,0,0,0,0,1,1,1,1
1415,03130,ISLE ET BARDAIS,46.6820455059,2.77701869373,3,272.0,0,0,0,0,0,0,0,0,0,0,0,0
1416,03131,ISSERPENT,46.1542955213,3.61825876933,3,503.0,0,0,0,0,0,0,0,0,1,1,1,1
1417,03132,JALIGNY SUR BESBRE,46.3770497759,3.59029838546,3,618.0,0,0,0,0,0,0,0,0,1,1,1,1
1418,03133,JENZAT,46.1601157879,3.19738809001,3,517.0,0,0,0,0,0,0,0,0,0,0,1,1
1420,03135,LALIZOLLE,46.1646303512,3.00825559496,3,376.0,0,0,0,0,0,0,0,0,0,1,1,1
1422,03137,LANGY,46.2728774328,3.46181153336,3,239.0,0,0,0,0,0,0,1,1,1,1,1,1
1423,03138,LAPALISSE,46.264846808,3.63838425184,3,3150.0,0,0,0,0,0,1,1,1,1,1,1,1
1424,03139,LAPRUGNE,45.9937136705,3.76308018051,3,362.0,0,0,0,0,0,0,0,0,0,0,0,0
1425,03140,LAVAULT STE ANNE,46.3086016059,2.60160340266,3,1200.0,1,1,1,1,1,1,1,1,1,1,1,1
1427,03142,LENAX,46.3039709752,3.83067027438,3,242.0,0,0,0,0,0,0,0,0,1,1,1,1
1429,03144,LIERNOLLES,46.3986289465,3.76799783799,3,246.0,0,0,0,0,0,0,0,0,0,0,0,0
1430,03145,LIGNEROLLES,46.2822531749,2.56690530803,3,697.0,0,1,0,0,0,0,0,0,1,1,1,1
1433,03148,LORIGES,46.2659177615,3.34188086413,3,342.0,0,0,0,0,0,0,1,0,0,0,1,1
1434,03149,LOUCHY MONTFAND,46.3075829687,3.24491928356,3,442.0,0,0,1,0,0,0,1,1,1,1,1,1
1435,03150,LOUROUX BOURBONNAIS,46.5340787528,2.8385482758,3,238.0,0,0,0,0,0,0,0,0,0,0,0,0
1437,03152,LOUROUX DE BOUBLE,46.2297197928,2.97309854454,3,280.0,0,0,0,0,0,0,0,0,1,-1,-1,1
1438,03154,LUNEAU,46.3662876048,3.95278636616,3,287.0,0,0,0,0,0,0,0,0,0,1,0,0
1439,03155,LURCY LEVIS,46.7350922642,2.91800325447,3,2147.0,0,0,0,0,0,0,1,0,0,0,1,1
1440,03156,LUSIGNY,46.5717045071,3.48949898102,3,1665.0,0,0,0,0,0,0,1,1,1,1,1,1
1441,03157,MAGNET,46.2172906901,3.5106036727,3,860.0,1,0,0,0,0,1,1,1,1,1,1,1
1442,03158,HAUT BOCAGE,46.4928636302,2.65852361334,3,368.0,0,0,0,0,0,0,0,0,1,1,1,1
1443,03158,HAUT BOCAGE,46.4928636302,2.65852361334,3,368.0,0,0,0,0,0,0,0,0,1,1,1,1
1444,03158,HAUT BOCAGE,46.4928636302,2.65852361334,3,368.0,0,0,0,0,0,0,0,0,1,1,1,1
1445,03159,MALICORNE,46.3072678602,2.77027684739,3,830.0,1,1,1,0,0,0,1,1,1,1,1,1
1446,03160,MARCENAT,46.237174267,3.39703242692,3,375.0,0,0,0,0,0,0,0,0,0,1,1,1
1447,03161,MARCILLAT EN COMBRAILLE,46.1701624404,2.63441118376,3,901.0,0,0,0,0,0,0,0,0,-1,1,1,1
1449,03163,MARIOL,46.0252722149,3.48652009889,3,762.0,0,0,0,1,1,0,-1,-1,-1,-1,-1,-1
1450,03164,LE MAYET D ECOLE,46.1649554035,3.24084567902,3,272.0,0,0,0,0,0,0,0,0,1,1,1,1
1451,03165,LE MAYET DE MONTAGNE,46.0602181682,3.65546570851,3,1573.0,0,0,0,0,0,0,1,1,1,1,1,1
1452,03166,MAZERIER,46.1325144393,3.18170482903,3,287.0,0,0,0,0,0,0,1,1,1,1,1,1
1453,03167,MAZIRAT,46.2185045574,2.55398563,3,287.0,0,0,0,0,0,0,1,0,0,-1,0,1
1454,03168,MEAULNE,46.5959256579,2.62022117679,3,763.0,0,0,0,0,0,0,-1,-1,-1,-1,-1,-1
1455,03169,MEILLARD,46.3881490513,3.23168900799,3,279.0,0,0,0,0,0,0,0,0,0,0,0,0
1457,03171,MERCY,46.4511354301,3.52416501976,3,262.0,0,0,0,0,0,0,0,0,0,0,0,0
1459,03173,MOLINET,46.464220041,3.9262713854,3,1160.0,0,0,0,0,0,0,-1,-1,-1,-1,-1,-1
1460,03174,MOLLES,46.1150413617,3.55648495184,3,819.0,0,0,0,0,0,0,0,0,1,1,1,1
1461,03175,MONESTIER,46.2628525623,3.10440007037,3,266.0,0,0,0,0,0,0,0,0,0,0,0,0
1462,03176,MONETAY SUR ALLIER,46.3810175167,3.28932554471,3,549.0,0,0,0,0,0,0,0,0,0,1,1,1
1463,03177,MONETAY SUR LOIRE,46.4350468294,3.82462613047,3,285.0,0,0,0,0,0,0,0,0,0,0,0,0
1464,03178,MONTAIGUET EN FOREZ,46.267429173,3.8221356053,3,320.0,0,0,0,0,0,0,0,0,1,-1,-1,-1
1465,03179,MONTAIGU LE BLIN,46.2907437255,3.51623839378,3,308.0,0,0,0,0,0,0,1,1,1,1,1,1
1466,03180,MONTBEUGNY,46.5282061849,3.47422921423,3,681.0,0,0,0,0,0,0,0,0,0,1,1,1
1467,03181,MONTCOMBROUX LES MINES,46.3606934499,3.72808957144,3,371.0,0,0,0,0,0,0,0,0,0,0,1,0
1468,03182,MONTEIGNET SUR L ANDELOT,46.1150007655,3.24811283769,3,238.0,0,1,1,0,1,1,1,1,1,1,1,1
1469,03183,LE MONTET,46.4062028922,3.0541000253,3,514.0,0,0,0,0,0,0,0,1,1,1,1,1
1470,03184,MONTILLY,46.610528559,3.24005745558,3,553.0,0,0,0,0,0,0,0,0,1,1,1,0
1471,03185,MONTLUCON,46.3385883496,2.60390499777,3,38402.0,1,1,1,1,1,1,1,1,1,1,1,1
1472,03186,MONTMARAULT,46.3201872756,2.95237432039,3,1530.0,0,0,0,0,0,0,1,1,1,1,1,1
1473,03187,MONTOLDRE,46.3375770064,3.45102443628,3,641.0,0,0,0,0,0,0,1,0,0,1,1,1
1474,03188,MONTORD,46.2897924844,3.23962321645,3,233.0,0,0,0,0,0,0,1,1,1,1,1,1
1475,03189,MONTVICQ,46.315678912,2.82223124184,3,743.0,0,0,0,0,0,1,1,1,1,1,1,1
1476,03190,MOULINS,46.5624641056,3.32662040221,3,19590.0,1,1,1,1,1,1,1,1,1,1,1,1
1477,03191,MURAT,46.410976289,2.90417805262,3,291.0,0,0,0,0,0,0,0,0,1,1,1,1
1481,03195,NERIS LES BAINS,46.2994420207,2.67574785449,3,2667.0,0,1,0,0,1,1,1,1,1,1,1,1
1482,03196,NEUILLY EN DONJON,46.3427363495,3.88528963495,3,224.0,0,0,0,0,0,0,0,0,0,1,1,1
1483,03197,NEUILLY LE REAL,46.466710676,3.43721508538,3,1434.0,0,0,0,0,0,0,0,0,1,1,1,1
1485,03200,NEUVY,46.5712518334,3.28275338591,3,1510.0,0,1,0,1,1,1,1,1,1,1,1,1
1486,03201,NIZEROLLES,46.1072966632,3.64408039597,3,333.0,0,0,0,0,0,0,0,0,0,0,0,1
1487,03202,NOYANT D ALLIER,46.4796760503,3.11878325467,3,687.0,0,0,0,0,0,0,0,1,1,1,1,1
1488,03203,PARAY LE FRESIL,46.6598970323,3.60383070741,3,418.0,0,0,0,0,0,0,0,0,0,0,0,0
1489,03204,PARAY SOUS BRIAILLES,46.2903733952,3.36980984118,3,641.0,0,1,1,1,1,1,1,1,1,1,1,1
1490,03205,PERIGNY,46.2466695762,3.56039743926,3,461.0,0,0,0,0,0,0,1,1,1,1,1,1
1492,03207,PIERREFITTE SUR LOIRE,46.5040402992,3.81007064731,3,513.0,0,0,0,0,0,0,-1,-1,-1,-1,-1,-1
1493,03208,LE PIN,46.4222179747,3.88958660139,3,393.0,0,0,0,0,0,0,0,0,0,1,0,0
1495,03210,POUZY MESANGY,46.7049856575,3.00718039936,3,415.0,0,0,0,0,0,0,1,0,0,1,1,1
1496,03211,PREMILHAT,46.3099309772,2.54719729208,3,2315.0,0,1,1,1,0,0,1,1,1,1,1,1
1497,03212,QUINSSAINES,46.3092023874,2.49444625529,3,1360.0,0,1,0,1,0,0,0,0,0,1,1,1
1498,03213,REUGNY,46.458404964,2.61328894387,3,264.0,0,0,0,0,0,0,0,0,0,1,1,1
1499,03214,ROCLES,46.4445146062,3.03677199137,3,377.0,0,0,0,0,0,0,0,0,1,1,1,1
1500,03215,RONGERES,46.2976179231,3.4520098944,3,582.0,0,1,1,0,1,0,1,1,1,1,1,1
1502,03217,ST ANGEL,46.3558498078,2.68461176543,3,755.0,1,1,1,1,1,1,1,1,1,1,1,1
1503,03218,ST AUBIN LE MONIAL,46.535765709,3.00144398409,3,284.0,0,0,0,0,0,0,0,0,1,1,1,1
1505,03220,ST BONNET DE ROCHEFORT,46.1505309834,3.14079379444,3,640.0,0,0,0,0,0,0,1,0,1,1,1,1
1506,03221,ST BONNET TRONCAIS,46.6697641721,2.69613341169,3,742.0,0,0,0,0,0,0,1,0,1,1,1,1
1508,03223,ST CHRISTOPHE,46.1663162062,3.57800809692,3,494.0,0,0,0,0,0,0,0,0,1,1,1,1
1509,03224,ST CLEMENT,46.0577534847,3.7219179861,3,363.0,0,0,0,0,0,0,0,0,0,1,1,1
1510,03225,ST DESIRE,46.5074397829,2.44986211954,3,470.0,0,0,0,0,0,0,-1,-1,-1,-1,-1,-1
1511,03226,ST DIDIER EN DONJON,46.3830807017,3.86098077845,3,268.0,0,0,0,0,0,0,0,0,0,1,1,1
1512,03227,ST DIDIER LA FORET,46.2294445001,3.33625437059,3,380.0,0,0,0,0,0,0,0,0,0,0,1,1
1514,03229,ST ENNEMOND,46.6808991637,3.40446807688,3,654.0,0,0,0,0,0,0,-1,-1,-1,-1,-1,-1
1515,03230,ST ETIENNE DE VICQ,46.1731804107,3.53616252147,3,513.0,0,1,0,0,0,0,1,0,1,1,1,1
1516,03231,ST FARGEOL,46.1343424286,2.63071732014,3,206.0,0,0,0,0,0,0,0,0,-1,1,-1,-1
1517,03232,ST FELIX,46.229193409,3.47524603973,3,347.0,1,0,1,0,0,1,1,1,1,1,1,1
1518,03233,ST GENEST,46.2634149323,2.60320533651,3,342.0,0,0,0,1,1,1,1,1,1,1,1,1
1519,03234,ST GERAND DE VAUX,46.3838249809,3.40743256191,3,417.0,0,0,0,0,0,0,0,0,0,0,0,0
1520,03235,ST GERAND LE PUY,46.2637640044,3.51175451596,3,996.0,0,0,0,0,0,1,1,1,1,1,1,1
1521,03236,ST GERMAIN DES FOSSES,46.1959477042,3.42997700831,3,3658.0,1,0,1,1,0,1,1,1,1,1,1,1
1522,03237,ST GERMAIN DE SALLES,46.1871001813,3.22053975584,3,442.0,0,0,0,0,0,0,0,0,1,1,1,1
1523,03238,ST HILAIRE,46.4866887035,3.01543389624,3,500.0,0,0,0,0,0,0,0,0,1,1,1,1
1524,03239,ST LEGER SUR VOUZANCE,46.4092021906,3.93725507717,3,281.0,0,0,0,0,0,0,0,0,0,0,0,0
1525,03240,ST LEON,46.410638894,3.68775721106,3,602.0,0,0,0,0,0,0,0,0,0,0,1,1
1526,03241,ST LEOPARDIN D AUGY,46.6979502806,3.10551355591,3,365.0,0,0,0,0,0,0,0,0,0,0,0,0
1527,03242,ST LOUP,46.3549641882,3.37601860081,3,570.0,0,0,0,0,0,0,0,0,0,0,0,1
1531,03246,ST MARTINIEN,46.3329189292,2.44287081295,3,622.0,0,0,0,1,0,0,0,0,1,1,0,1
1532,03247,ST MENOUX,46.5823923172,3.14494082801,3,1021.0,0,0,0,0,0,0,1,0,1,1,1,1
1535,03250,ST PIERRE LAVAL,46.1954561376,3.77027031369,3,369.0,0,0,0,0,0,0,-1,1,-1,-1,-1,-1
1536,03251,ST PLAISIR,46.6243818392,2.95587034653,3,403.0,0,0,0,0,0,0,0,0,0,0,0,0
1537,03252,ST PONT,46.1588138012,3.29855532517,3,578.0,0,0,0,0,0,0,0,0,1,1,1,1
1538,03253,ST POURCAIN SUR BESBRE,46.4817772858,3.64933142149,3,411.0,0,0,0,0,0,0,1,0,1,1,1,1
1539,03254,ST POURCAIN SUR SIOULE,46.3045094327,3.30537827054,3,4987.0,0,0,1,1,1,1,1,1,1,1,1,1
1541,03256,ST PRIEST EN MURAT,46.3556892534,2.90261837567,3,222.0,0,0,0,0,0,0,0,0,1,1,1,1
1542,03257,ST PRIX,46.2252273378,3.64894031518,3,797.0,0,0,0,0,0,1,1,1,1,1,1,1
1543,03258,ST REMY EN ROLLAT,46.1924635321,3.38335990994,3,1619.0,0,0,0,0,0,0,0,0,1,1,1,1
1544,03259,ST SAUVIER,46.396594391,2.33154584912,3,340.0,0,0,0,0,0,0,0,0,0,0,0,0
1545,03260,ST SORNIN,46.4116980303,3.00356131793,3,230.0,0,0,0,0,0,0,0,0,0,0,0,0
1546,03261,STE THERENCE,46.2433906142,2.57271161868,3,202.0,0,0,0,0,0,0,0,0,0,1,0,0
1547,03262,ST VICTOR,46.3882767935,2.60941319336,3,2032.0,0,0,1,0,0,1,1,1,1,1,1,1
1549,03264,ST YORRE,46.0642575713,3.46749665689,3,2757.0,0,1,0,1,1,1,1,1,1,1,1,1
1550,03265,SALIGNY SUR ROUDON,46.4629712549,3.75125723141,3,777.0,0,0,0,0,0,0,0,0,1,1,1,1
1551,03266,SANSSAT,46.2504085675,3.46770686659,3,253.0,0,0,0,0,0,0,1,1,1,1,1,1
1552,03267,SAULCET,46.3294310458,3.26694921793,3,644.0,0,0,1,0,1,1,1,1,1,1,1,1
1553,03268,SAULZET,46.1377242918,3.22134877309,3,349.0,0,0,0,0,0,0,0,0,1,0,1,1
1556,03271,SERBANNES,46.098919682,3.35245745606,3,743.0,0,1,1,1,1,1,1,1,1,1,1,1
1557,03272,SERVILLY,46.2802589797,3.58979684003,3,275.0,0,0,0,0,0,0,1,1,1,1,1,1
1558,03273,SEUILLET,46.2045684264,3.46787844535,3,494.0,1,1,1,1,1,1,1,1,1,1,1,1
1559,03274,SORBIER,46.3613185647,3.65747930664,3,292.0,0,0,0,0,0,0,0,0,0,1,1,1
1560,03275,SOUVIGNY,46.5243440423,3.18992960249,3,1989.0,0,0,0,0,0,0,1,1,1,1,1,1
1562,03277,TARGET,46.2848407144,3.04794632227,3,267.0,0,0,0,0,0,0,0,0,0,0,0,0
1563,03278,TAXAT SENAT,46.207728501,3.14578508085,3,223.0,0,0,0,0,0,0,1,0,1,1,1,1
1564,03279,TEILLET ARGENTY,46.262769167,2.51658003922,3,542.0,0,0,0,0,0,0,1,0,1,1,0,1
1565,03280,TERJAT,46.2144621437,2.61879197582,3,207.0,0,0,0,0,0,0,0,0,0,1,1,1
1566,03281,LE THEIL,46.3563893296,3.12547357039,3,411.0,0,0,0,0,0,0,0,0,1,1,1,1
1567,03282,THENEUILLE,46.587490556,2.87994545903,3,388.0,0,0,0,0,0,0,0,0,0,0,0,0
1568,03283,THIEL SUR ACOLIN,46.5311020411,3.57823760672,3,1001.0,0,0,0,0,0,0,0,0,1,1,1,1
1569,03284,THIONNE,46.4118104465,3.57326147664,3,326.0,0,0,0,0,0,0,0,0,1,1,1,1
1571,03286,TOULON SUR ALLIER,46.51061605,3.37706265767,3,1137.0,0,0,0,0,0,0,0,0,1,1,1,1
1572,03287,TREBAN,46.3993644498,3.1654172286,3,394.0,0,0,0,0,0,0,0,0,0,1,1,1
1573,03288,TREIGNAT,46.3483905337,2.3521991874,3,447.0,0,0,0,0,0,0,-1,-1,-1,-1,0,-1
1574,03289,TRETEAU,46.3677104422,3.51996970707,3,558.0,0,0,0,0,0,0,0,0,0,0,0,0
1575,03290,TREVOL,46.6370512909,3.31589139326,3,1635.0,0,0,0,0,0,0,0,0,1,1,1,1
1576,03291,TREZELLES,46.3195324708,3.59671419361,3,387.0,0,0,0,0,0,0,0,0,0,1,1,1
1577,03292,TRONGET,46.418633391,3.08862365583,3,926.0,0,0,0,0,0,0,0,1,1,1,1,1
1578,03293,URCAY,46.6340748365,2.61371570998,3,295.0,0,0,0,0,0,0,-1,-1,-1,-1,-1,-1
1581,03296,VALIGNY,46.7156221865,2.82039123195,3,388.0,0,0,0,0,0,0,-1,-1,-1,-1,-1,-1
1582,03297,VALLON EN SULLY,46.5401383727,2.61674884517,3,1674.0,0,0,0,0,0,0,-1,1,-1,1,1,1
1583,03298,VARENNES SUR ALLIER,46.3170256578,3.40012828582,3,3600.0,0,1,1,1,1,1,1,1,1,1,1,1
1584,03299,VARENNES SUR TECHE,46.3177738358,3.6374417286,3,254.0,0,0,0,0,0,0,0,0,0,1,1,1
1585,03300,VAUMAS,46.4484082735,3.6241176484,3,549.0,0,0,0,0,0,0,0,0,1,1,1,1
1586,03301,VAUX,46.4214002132,2.57435492547,3,1057.0,0,0,0,0,0,0,1,1,1,1,1,1
1588,03303,VENAS,46.4727802173,2.76726504,3,238.0,0,0,0,0,0,0,0,0,1,1,1,1
1589,03304,VENDAT,46.1618116569,3.34727094186,3,2227.0,0,0,0,0,0,0,0,0,1,1,1,1
1590,03305,VERNEIX,46.4080547115,2.6746212521,3,601.0,0,0,0,0,0,0,0,1,1,1,1,1
1591,03306,LE VERNET,46.1067527363,3.47492140254,3,1909.0,1,1,1,1,1,1,1,1,1,1,1,1
1592,03307,VERNEUIL EN BOURBONNAIS,46.3540600283,3.25057881171,3,238.0,0,0,0,0,0,0,0,0,0,0,1,1
1594,03309,LE VEURDRE,46.7427276777,3.04259770031,3,516.0,0,0,0,0,0,0,0,0,0,0,0,0
1595,03310,VICHY,46.1300051383,3.42442081174,3,24774.0,1,1,1,1,1,1,1,1,1,1,1,1
1596,03311,VICQ,46.1471274068,3.09596954152,3,328.0,0,0,0,0,0,0,1,1,1,1,1,1
1597,03312,VIEURE,46.5001110432,2.88222237454,3,267.0,0,0,0,0,0,0,0,0,0,0,0,1
1598,03313,LE VILHAIN,46.5619095522,2.79303077979,3,265.0,0,0,0,0,0,0,0,0,0,0,0,0
1599,03314,VILLEBRET,46.277798684,2.63276519171,3,1276.0,0,1,0,1,1,1,1,1,1,1,1,1
1600,03315,VILLEFRANCHE D ALLIER,46.3963110357,2.84126895926,3,1331.0,0,0,0,0,0,0,0,0,1,1,1,1
1601,03315,VILLEFRANCHE D ALLIER,46.3963110357,2.84126895926,3,1331.0,0,0,0,0,0,0,0,0,1,1,1,1
1602,03316,VILLENEUVE SUR ALLIER,46.6741150218,3.25033675035,3,985.0,0,0,0,0,0,0,-1,-1,-1,1,1,1
1603,03317,VIPLAIX,46.461810965,2.36975422763,3,291.0,0,0,0,0,0,0,0,0,0,0,0,0
1605,03319,VOUSSAC,46.3256833709,3.07336455653,3,464.0,0,0,0,0,0,0,0,0,0,0,0,0
1606,03320,YGRANDE,46.5497137895,2.94199693043,3,773.0,0,0,0,0,0,0,0,0,1,1,1,1
1607,03321,YZEURE,46.5636456232,3.37978160133,3,13074.0,1,1,1,0,0,1,1,1,1,1,1,1
1608,04001,AIGLUN,44.0638744567,6.13842845338,4,1276.0,0,0,1,1,1,1,1,1,1,1,1,1
1609,04004,ALLEMAGNE EN PROVENCE,43.7887902464,6.03091832001,4,514.0,0,0,0,0,0,0,0,0,0,0,1,1
1611,04006,ALLOS,44.2614961379,6.62671789984,4,691.0,0,0,0,0,0,0,0,0,0,0,0,0
